[
    {
        "name": "Blue Springs State Park",
        "location": "Barbour",
        "state": "Alabama",
        "country": "USA",
        "imageURL": null,
        "remarks": ""
    },
    {
        "name": "Buck's Pocket State Park",
        "location": "DeKalb, Jackson, Marshall",
        "state": "Alabama",
        "country": "USA",
        "imageURL": null,
        "remarks": ""
    },
    {
        "name": "Cathedral Caverns State Park",
        "location": "Marshall",
        "state": "Alabama",
        "country": "USA",
        "imageURL": null,
        "remarks": ""
    },
    {
        "name": "Cheaha State Park",
        "location": "Clay, Cleburne",
        "state": "Alabama",
        "country": "USA",
        "imageURL": null,
        "remarks": ""
    },
    {
        "name": "Chewacla State Park",
        "location": "Lee",
        "state": "Alabama",
        "country": "USA",
        "imageURL": null,
        "remarks": ""
    },
    {
        "name": "DeSoto State Park",
        "location": "Cherokee, DeKalb",
        "state": "Alabama",
        "country": "USA",
        "imageURL": null,
        "remarks": ""
    },
    {
        "name": "Frank Jackson State Park",
        "location": "Covington",
        "state": "Alabama",
        "country": "USA",
        "imageURL": null,
        "remarks": ""
    },
    {
        "name": "Gulf State Park",
        "location": "Baldwin",
        "state": "Alabama",
        "country": "USA",
        "imageURL": null,
        "remarks": ""
    },
    {
        "name": "Joe Wheeler State Park",
        "location": "Lauderdale, Lawrence",
        "state": "Alabama",
        "country": "USA",
        "imageURL": null,
        "remarks": ""
    },
    {
        "name": "Lake Guntersville State Park",
        "location": "Marshall",
        "state": "Alabama",
        "country": "USA",
        "imageURL": null,
        "remarks": ""
    },
    {
        "name": "Lake Lurleen State Park",
        "location": "Tuscaloosa",
        "state": "Alabama",
        "country": "USA",
        "imageURL": null,
        "remarks": ""
    },
    {
        "name": "Lakepoint Resort State Park",
        "location": "Barbour",
        "state": "Alabama",
        "country": "USA",
        "imageURL": null,
        "remarks": ""
    },
    {
        "name": "Meaher State Park",
        "location": "Baldwin",
        "state": "Alabama",
        "country": "USA",
        "imageURL": null,
        "remarks": ""
    },
    {
        "name": "Monte Sano State Park",
        "location": "Madison",
        "state": "Alabama",
        "country": "USA",
        "imageURL": null,
        "remarks": ""
    },
    {
        "name": "Oak Mountain State Park",
        "location": "Shelby",
        "state": "Alabama",
        "country": "USA",
        "imageURL": null,
        "remarks": ""
    },
    {
        "name": "Rickwood Caverns State Park",
        "location": "Blount",
        "state": "Alabama",
        "country": "USA",
        "imageURL": null,
        "remarks": ""
    },
    {
        "name": "Wind Creek State Park",
        "location": "Tallapoosa",
        "state": "Alabama",
        "country": "USA",
        "imageURL": null,
        "remarks": ""
    }
]
