[{"name":"Alamo Lake State Park","location":"La Paz & Mohave","state":"Arizona","country":"USA","imageURL":null,"remarks":"400"},{"name":"Buckskin Mountain State Park","location":"La Paz","state":"Arizona","country":"USA","imageURL":null,"remarks":"130"},{"name":"Catalina State Park","location":"Pima","state":"Arizona","country":"USA","imageURL":null,"remarks":"810"},{"name":"Cattail Cove State Park","location":"Mohave","state":"Arizona","country":"USA","imageURL":null,"remarks":"140"},{"name":"Dead Horse Ranch State Park","location":"Yavapai","state":"Arizona","country":"USA","imageURL":null,"remarks":"1,000"},{"name":"Fool Hollow Lake Recreation Area","location":"Navajo","state":"Arizona","country":"USA","imageURL":null,"remarks":"1,900"},{"name":"Fort Verde State Historic Park","location":"Yavapai","state":"Arizona","country":"USA","imageURL":null,"remarks":"990"},{"name":"Granite Mountain Hotshots Memorial State Park","location":"Yavapai","state":"Arizona","country":"USA","imageURL":null,"remarks":"1,316â€“1,664"},{"name":"Homolovi State Park","location":"Navajo","state":"Arizona","country":"USA","imageURL":null,"remarks":"1,500"},{"name":"Jerome State Historic Park","location":"Yavapai","state":"Arizona","country":"USA","imageURL":null,"remarks":"1,500"},{"name":"Kartchner Caverns State Park","location":"Cochise","state":"Arizona","country":"USA","imageURL":null,"remarks":"1,400"},{"name":"Lake Havasu State Park","location":"Mohave","state":"Arizona","country":"USA","imageURL":null,"remarks":"150"},{"name":"Lost Dutchman State Park","location":"Pinal","state":"Arizona","country":"USA","imageURL":null,"remarks":"610"},{"name":"Lyman Lake State Park","location":"Apache","state":"Arizona","country":"USA","imageURL":null,"remarks":"1,800"},{"name":"McFarland State Historic Park","location":"Pinal","state":"Arizona","country":"USA","imageURL":null,"remarks":"460"},{"name":"Oracle State Park","location":"Pinal","state":"Arizona","country":"USA","imageURL":null,"remarks":"1,100"},{"name":"Patagonia Lake State Park","location":"Santa Cruz","state":"Arizona","country":"USA","imageURL":null,"remarks":"1,140"},{"name":"Picacho Peak State Park","location":"Pinal","state":"Arizona","country":"USA","imageURL":null,"remarks":"610"},{"name":"Red Rock State Park","location":"Yavapai","state":"Arizona","country":"USA","imageURL":null,"remarks":"1,200"},{"name":"Riordan Mansion State Historic Park","location":"Coconino","state":"Arizona","country":"USA","imageURL":null,"remarks":"2,100"},{"name":"Roper Lake State Park","location":"Graham","state":"Arizona","country":"USA","imageURL":null,"remarks":"950"},{"name":"San Rafael State Natural Area","location":"Santa Cruz","state":"Arizona","country":"USA","imageURL":null,"remarks":"1,450"},{"name":"Slide Rock State Park","location":"Coconino","state":"Arizona","country":"USA","imageURL":null,"remarks":"1,500"},{"name":"Sonoita Creek State Natural Area","location":"Santa Cruz","state":"Arizona","country":"USA","imageURL":null,"remarks":"1,140"},{"name":"Tombstone Courthouse State Historic Park","location":"Cochise","state":"Arizona","country":"USA","imageURL":null,"remarks":"1,383"},{"name":"Tonto Natural Bridge State Park","location":"Gila","state":"Arizona","country":"USA","imageURL":null,"remarks":"1,380"},{"name":"Tubac Presidio State Historic Park","location":"Santa Cruz","state":"Arizona","country":"USA","imageURL":null,"remarks":"1,100"},{"name":"Verde River Greenway State Natural Area","location":"Yavapai","state":"Arizona","country":"USA","imageURL":null,"remarks":"1,000"},{"name":"Yuma Quartermaster Depot State Historic Park","location":"Yuma","state":"Arizona","country":"USA","imageURL":null,"remarks":"37"},{"name":"Yuma Territorial Prison State Historic Park","location":"Yuma","state":"Arizona","country":"USA","imageURL":null,"remarks":"37"}]