[{"name":"Admiral William Standley State Recreation Area","location":"Mendocino","state":"California","country":"USA","imageURL":null,"remarks":"1944"},{"name":"Ahjumawi Lava Springs State Park","location":"Shasta","state":"California","country":"USA","imageURL":null,"remarks":"1975"},{"name":"Albany State Marine Reserve","location":"Alameda","state":"California","country":"USA","imageURL":null,"remarks":"1985"},{"name":"Anderson Marsh State Historic Park","location":"Lake","state":"California","country":"USA","imageURL":null,"remarks":"1982"},{"name":"Andrew Molera State Park","location":"Monterey","state":"California","country":"USA","imageURL":null,"remarks":"1968"},{"name":"Angel Island State Park","location":"Marin and San Francisco","state":"California","country":"USA","imageURL":null,"remarks":"1955"},{"name":"Año Nuevo State Park","location":"San Mateo","state":"California","country":"USA","imageURL":null,"remarks":"1985"},{"name":"Antelope Valley California Poppy Reserve","location":"Los Angeles","state":"California","country":"USA","imageURL":null,"remarks":"1976"},{"name":"Antelope Valley Indian Museum State Historic Park","location":"Los Angeles","state":"California","country":"USA","imageURL":null,"remarks":"1979"},{"name":"Anza-Borrego Desert State Park","location":"San Diego, Imperial, and Riverside","state":"California","country":"USA","imageURL":null,"remarks":"1933"},{"name":"Armstrong Redwoods State Natural Reserve","location":"Sonoma","state":"California","country":"USA","imageURL":null,"remarks":"1934"},{"name":"Arthur B. Ripley Desert Woodland State Park","location":"Los Angeles","state":"California","country":"USA","imageURL":null,"remarks":"1993"},{"name":"Asilomar State Beach","location":"Monterey","state":"California","country":"USA","imageURL":null,"remarks":"1951"},{"name":"Auburn State Recreation Area","location":"El Dorado and Placer","state":"California","country":"USA","imageURL":null,"remarks":"1966"},{"name":"Austin Creek State Recreation Area","location":"Sonoma","state":"California","country":"USA","imageURL":null,"remarks":"1964"},{"name":"Azalea State Natural Reserve","location":"Humboldt","state":"California","country":"USA","imageURL":null,"remarks":"1943"},{"name":"Bale Grist Mill State Historic Park","location":"Napa","state":"California","country":"USA","imageURL":null,"remarks":"1974"},{"name":"Bean Hollow State Beach","location":"San Mateo","state":"California","country":"USA","imageURL":null,"remarks":"1958"},{"name":"Benbow State Recreation Area","location":"Humboldt","state":"California","country":"USA","imageURL":null,"remarks":"1958"},{"name":"Benicia Capitol State Historic Park","location":"Solano","state":"California","country":"USA","imageURL":null,"remarks":"1951"},{"name":"Benicia State Recreation Area","location":"Solano","state":"California","country":"USA","imageURL":null,"remarks":"1957"},{"name":"Bethany Reservoir State Recreation Area","location":"Alameda","state":"California","country":"USA","imageURL":null,"remarks":"1974"},{"name":"Bidwell Mansion State Historic Park","location":"Butte","state":"California","country":"USA","imageURL":null,"remarks":"1964"},{"name":"Bidwell-Sacramento River State Park","location":"Butte and Glenn","state":"California","country":"USA","imageURL":null,"remarks":"1979"},{"name":"Big Basin Redwoods State Park","location":"Santa Cruz","state":"California","country":"USA","imageURL":null,"remarks":"1902"},{"name":"Bodie State Historic Park","location":"Mono","state":"California","country":"USA","imageURL":null,"remarks":"1962"},{"name":"Bolsa Chica State Beach","location":"Orange","state":"California","country":"USA","imageURL":null,"remarks":"1960"},{"name":"Border Field State Park","location":"San Diego","state":"California","country":"USA","imageURL":null,"remarks":"1972"},{"name":"Bothe-Napa Valley State Park","location":"Napa and Sonoma","state":"California","country":"USA","imageURL":null,"remarks":"1960"},{"name":"Brannan Island State Recreation Area","location":"Sacramento","state":"California","country":"USA","imageURL":null,"remarks":"1952"},{"name":"Burleigh H. Murray Ranch","location":"San Mateo","state":"California","country":"USA","imageURL":null,"remarks":"1979"},{"name":"Burton Creek State Park","location":"Placer","state":"California","country":"USA","imageURL":null,"remarks":"1976"},{"name":"Butano State Park","location":"San Mateo","state":"California","country":"USA","imageURL":null,"remarks":"1956"},{"name":"Butte City Project","location":"Butte","state":"California","country":"USA","imageURL":null,"remarks":"2007"},{"name":"Calaveras Big Trees State Park","location":"Calaveras and Tuolumne","state":"California","country":"USA","imageURL":null,"remarks":"1931"},{"name":"California Citrus State Historic Park","location":"Riverside","state":"California","country":"USA","imageURL":null,"remarks":"1984"},{"name":"California Indian Heritage Center State Park","location":"Yolo","state":"California","country":"USA","imageURL":null,"remarks":"2011"},{"name":"California State Capitol Museum","location":"Sacramento","state":"California","country":"USA","imageURL":null,"remarks":"1982"},{"name":"California State Mining and Mineral Museum","location":"Mariposa","state":"California","country":"USA","imageURL":null,"remarks":"1999"},{"name":"Cambria State Marine Park","location":"San Luis Obispo","state":"California","country":"USA","imageURL":null,"remarks":"2010"},{"name":"Candlestick Point State Recreation Area","location":"San Francisco","state":"California","country":"USA","imageURL":null,"remarks":"1972"},{"name":"Cardiff State Beach","location":"San Diego","state":"California","country":"USA","imageURL":null,"remarks":"1949"},{"name":"Carlsbad State Beach","location":"San Diego","state":"California","country":"USA","imageURL":null,"remarks":"1933"},{"name":"Carmel River State Beach","location":"Monterey","state":"California","country":"USA","imageURL":null,"remarks":"1953"},{"name":"Carnegie State Vehicular Recreation Area","location":"Alameda and San Joaquin","state":"California","country":"USA","imageURL":null,"remarks":"1979"},{"name":"Carpinteria State Beach","location":"Santa Barbara and Ventura","state":"California","country":"USA","imageURL":null,"remarks":"1932"},{"name":"Caspar Headlands State Beach","location":"Mendocino","state":"California","country":"USA","imageURL":null,"remarks":"1972"},{"name":"Caspar Headlands State Natural Reserve","location":"Mendocino","state":"California","country":"USA","imageURL":null,"remarks":"1972"},{"name":"Castaic Lake State Recreation Area","location":"Los Angeles","state":"California","country":"USA","imageURL":null,"remarks":"1965"},{"name":"Castle Crags State Park","location":"Shasta","state":"California","country":"USA","imageURL":null,"remarks":"1934"},{"name":"Castle Rock State Park","location":"Santa Clara, Santa Cruz, and San Mateo","state":"California","country":"USA","imageURL":null,"remarks":"1968"},{"name":"Caswell Memorial State Park","location":"San Joaquin","state":"California","country":"USA","imageURL":null,"remarks":"1952"},{"name":"Cayucos State Beach","location":"San Luis Obispo","state":"California","country":"USA","imageURL":null,"remarks":"1940"},{"name":"China Camp State Park","location":"Marin","state":"California","country":"USA","imageURL":null,"remarks":"1976"},{"name":"Chino Hills State Park","location":"Orange, Riverside, and San Bernardino","state":"California","country":"USA","imageURL":null,"remarks":"1981"},{"name":"Chumash Painted Cave State Historic Park","location":"Santa Barbara","state":"California","country":"USA","imageURL":null,"remarks":"1976"},{"name":"Clay Pit State Vehicular Recreation Area","location":"Butte","state":"California","country":"USA","imageURL":null,"remarks":"1981"},{"name":"Clear Lake State Park","location":"Lake","state":"California","country":"USA","imageURL":null,"remarks":"1949"},{"name":"Colonel Allensworth State Historic Park","location":"Tulare","state":"California","country":"USA","imageURL":null,"remarks":"1973"},{"name":"Columbia State Historic Park","location":"Tuolumne","state":"California","country":"USA","imageURL":null,"remarks":"1946"},{"name":"Colusa-Sacramento River State Recreation Area","location":"Colusa","state":"California","country":"USA","imageURL":null,"remarks":"1955"},{"name":"Corona del Mar State Beach","location":"Orange","state":"California","country":"USA","imageURL":null,"remarks":"1947"},{"name":"Crystal Cove State Park","location":"Orange","state":"California","country":"USA","imageURL":null,"remarks":"1979"},{"name":"Cuyamaca Rancho State Park","location":"San Diego","state":"California","country":"USA","imageURL":null,"remarks":"1933"},{"name":"D. L. Bliss State Park","location":"El Dorado","state":"California","country":"USA","imageURL":null,"remarks":"1929"},{"name":"Del Norte Coast Redwoods State Park","location":"Del Norte","state":"California","country":"USA","imageURL":null,"remarks":"1925"},{"name":"Delta Meadows","location":"Sacramento","state":"California","country":"USA","imageURL":null,"remarks":"1985"},{"name":"Dockweiler State Beach","location":"Los Angeles","state":"California","country":"USA","imageURL":null,"remarks":"1948"},{"name":"Doheny State Beach","location":"Orange","state":"California","country":"USA","imageURL":null,"remarks":"1931"},{"name":"Donner Memorial State Park","location":"Nevada and Placer","state":"California","country":"USA","imageURL":null,"remarks":"1928"},{"name":"Ed Z'berg Sugar Pine Point State Park","location":"El Dorado","state":"California","country":"USA","imageURL":null,"remarks":"1965"},{"name":"El Capitán State Beach","location":"Santa Barbara","state":"California","country":"USA","imageURL":null,"remarks":"1953"},{"name":"El Presidio de Santa Barbara State Historic Park","location":"Santa Barbara","state":"California","country":"USA","imageURL":null,"remarks":"1966"},{"name":"Emerald Bay State Park","location":"El Dorado","state":"California","country":"USA","imageURL":null,"remarks":"1953"},{"name":"Emeryville Crescent State Marine Reserve","location":"Alameda and Contra Costa","state":"California","country":"USA","imageURL":null,"remarks":"1985"},{"name":"Emma Wood State Beach","location":"Ventura","state":"California","country":"USA","imageURL":null,"remarks":"1957"},{"name":"Empire Mine State Historic Park","location":"Nevada","state":"California","country":"USA","imageURL":null,"remarks":"1975"},{"name":"Estero Bluffs State Park","location":"San Luis Obispo","state":"California","country":"USA","imageURL":null,"remarks":"2000"},{"name":"Folsom Lake State Recreation Area","location":"El Dorado, Placer, and Sacramento","state":"California","country":"USA","imageURL":null,"remarks":"1956"},{"name":"Folsom Powerhouse State Historic Park","location":"Sacramento","state":"California","country":"USA","imageURL":null,"remarks":"1956"},{"name":"The Forest of Nisene Marks State Park","location":"Santa Cruz","state":"California","country":"USA","imageURL":null,"remarks":"1963"},{"name":"Fort Humboldt State Historic Park","location":"Humboldt","state":"California","country":"USA","imageURL":null,"remarks":"1955"},{"name":"Fort Ord Dunes State Park","location":"Monterey","state":"California","country":"USA","imageURL":null,"remarks":"2009"},{"name":"Fort Ross State Historic Park","location":"Sonoma","state":"California","country":"USA","imageURL":null,"remarks":"1909"},{"name":"Fort Tejon State Historic Park","location":"Kern","state":"California","country":"USA","imageURL":null,"remarks":"1940"},{"name":"Franks Tract State Recreation Area","location":"Contra Costa","state":"California","country":"USA","imageURL":null,"remarks":"1959"},{"name":"Fremont Peak State Park","location":"Monterey and San Benito","state":"California","country":"USA","imageURL":null,"remarks":"1934"},{"name":"Garrapata State Park","location":"Monterey","state":"California","country":"USA","imageURL":null,"remarks":"1979"},{"name":"Gaviota State Park","location":"Santa Barbara","state":"California","country":"USA","imageURL":null,"remarks":"1953"},{"name":"George J. Hatfield State Recreation Area","location":"Merced","state":"California","country":"USA","imageURL":null,"remarks":"1953"},{"name":"Governor's Mansion State Historic Park","location":"Sacramento","state":"California","country":"USA","imageURL":null,"remarks":"1903"},{"name":"Gray Whale Cove State Beach","location":"San Mateo","state":"California","country":"USA","imageURL":null,"remarks":"1966"},{"name":"Great Valley Grasslands State Park","location":"Merced","state":"California","country":"USA","imageURL":null,"remarks":"1982"},{"name":"Greenwood State Beach","location":"Mendocino","state":"California","country":"USA","imageURL":null,"remarks":"1978"},{"name":"Grizzly Creek Redwoods State Park","location":"Humboldt","state":"California","country":"USA","imageURL":null,"remarks":"1943"},{"name":"Grover Hot Springs State Park","location":"Alpine","state":"California","country":"USA","imageURL":null,"remarks":"1959"},{"name":"Half Moon Bay State Beach","location":"San Mateo","state":"California","country":"USA","imageURL":null,"remarks":"1956"},{"name":"Harmony Headlands State Park","location":"San Luis Obispo","state":"California","country":"USA","imageURL":null,"remarks":"2003"},{"name":"Harry A. Merlo State Recreation Area","location":"Humboldt","state":"California","country":"USA","imageURL":null,"remarks":"1982"},{"name":"Hatton Canyon","location":"Monterey","state":"California","country":"USA","imageURL":null,"remarks":"2002"},{"name":"Hearst San Simeon State Historical Monument","location":"San Luis Obispo","state":"California","country":"USA","imageURL":null,"remarks":"1958"},{"name":"Hearst San Simeon State Park","location":"San Luis Obispo","state":"California","country":"USA","imageURL":null,"remarks":"1932"},{"name":"Heber Dunes State Vehicular Recreation Area","location":"Imperial","state":"California","country":"USA","imageURL":null,"remarks":"1998"},{"name":"Hendy Woods State Park","location":"Mendocino","state":"California","country":"USA","imageURL":null,"remarks":"1958"},{"name":"Henry Cowell Redwoods State Park","location":"Santa Cruz","state":"California","country":"USA","imageURL":null,"remarks":"1953"},{"name":"Henry W. Coe State Park","location":"Santa Clara and Stanislaus","state":"California","country":"USA","imageURL":null,"remarks":"1959"},{"name":"Hollister Hills State Vehicular Recreation Area","location":"San Benito","state":"California","country":"USA","imageURL":null,"remarks":"1975"},{"name":"Humboldt Lagoons State Park","location":"Humboldt","state":"California","country":"USA","imageURL":null,"remarks":"1931"},{"name":"Humboldt Redwoods State Park","location":"Humboldt","state":"California","country":"USA","imageURL":null,"remarks":"1921"},{"name":"Hungry Valley State Vehicular Recreation Area","location":"Los Angeles and Ventura","state":"California","country":"USA","imageURL":null,"remarks":"1978"},{"name":"Huntington State Beach","location":"Orange","state":"California","country":"USA","imageURL":null,"remarks":"1942"},{"name":"Indian Grinding Rock State Historic Park","location":"Amador","state":"California","country":"USA","imageURL":null,"remarks":"1962"},{"name":"Indio Hills Palms","location":"Riverside","state":"California","country":"USA","imageURL":null,"remarks":"1983"},{"name":"Jack London State Historic Park","location":"Sonoma","state":"California","country":"USA","imageURL":null,"remarks":"1959"},{"name":"Jedediah Smith Redwoods State Park","location":"Del Norte","state":"California","country":"USA","imageURL":null,"remarks":"1939"},{"name":"John B. Dewitt Redwoods State Natural Reserve","location":"Humboldt","state":"California","country":"USA","imageURL":null,"remarks":"1929"},{"name":"John Little State Natural Reserve","location":"Monterey","state":"California","country":"USA","imageURL":null,"remarks":"1953"},{"name":"Jug Handle State Natural Reserve","location":"Mendocino","state":"California","country":"USA","imageURL":null,"remarks":"1976"},{"name":"Julia Pfeiffer Burns State Park","location":"Monterey","state":"California","country":"USA","imageURL":null,"remarks":"1962"},{"name":"Kenneth Hahn State Recreation Area","location":"Los Angeles","state":"California","country":"USA","imageURL":null,"remarks":"1984"},{"name":"Kings Beach State Recreation Area","location":"Placer","state":"California","country":"USA","imageURL":null,"remarks":"1974"},{"name":"Kruse Rhododendron State Natural Reserve","location":"Sonoma","state":"California","country":"USA","imageURL":null,"remarks":"1934"},{"name":"La Purísima Mission State Historic Park","location":"Santa Barbara","state":"California","country":"USA","imageURL":null,"remarks":"1935"},{"name":"Lake Del Valle State Recreation Area","location":"Alameda","state":"California","country":"USA","imageURL":null,"remarks":"1967"},{"name":"Lake Oroville State Recreation Area","location":"Butte","state":"California","country":"USA","imageURL":null,"remarks":"1967"},{"name":"Lake Perris State Recreation Area","location":"Riverside","state":"California","country":"USA","imageURL":null,"remarks":"1974"},{"name":"Lake Valley State Recreation Area","location":"El Dorado","state":"California","country":"USA","imageURL":null,"remarks":"1985"},{"name":"Leland Stanford Mansion State Historic Park","location":"Sacramento","state":"California","country":"USA","imageURL":null,"remarks":"1978"},{"name":"Leo Carrillo State Park","location":"Los Angeles and Ventura","state":"California","country":"USA","imageURL":null,"remarks":"1953"},{"name":"Leucadia State Beach","location":"San Diego","state":"California","country":"USA","imageURL":null,"remarks":"1949"},{"name":"Lighthouse Field State Beach","location":"Santa Cruz","state":"California","country":"USA","imageURL":null,"remarks":"1978"},{"name":"Limekiln State Park","location":"Monterey","state":"California","country":"USA","imageURL":null,"remarks":"1994"},{"name":"Little River State Beach","location":"Humboldt","state":"California","country":"USA","imageURL":null,"remarks":"1931"},{"name":"Los Angeles State Historic Park","location":"Los Angeles","state":"California","country":"USA","imageURL":null,"remarks":"2001"},{"name":"Los Encinos State Historic Park","location":"Los Angeles","state":"California","country":"USA","imageURL":null,"remarks":"1949"},{"name":"Los Osos Oaks State Natural Reserve","location":"San Luis Obispo","state":"California","country":"USA","imageURL":null,"remarks":"1972"},{"name":"MacKerricher State Park","location":"Mendocino","state":"California","country":"USA","imageURL":null,"remarks":"1949"},{"name":"Mailliard Woods State Natural Reserve","location":"Mendocino","state":"California","country":"USA","imageURL":null,"remarks":"1945"},{"name":"Malakoff Diggins State Historic Park","location":"Nevada","state":"California","country":"USA","imageURL":null,"remarks":"1965"},{"name":"Malibu Creek State Park","location":"Los Angeles","state":"California","country":"USA","imageURL":null,"remarks":"1974"},{"name":"Malibu Lagoon State Beach","location":"Los Angeles","state":"California","country":"USA","imageURL":null,"remarks":"1951"},{"name":"Manchester State Park","location":"Mendocino","state":"California","country":"USA","imageURL":null,"remarks":"1955"},{"name":"Mandalay State Beach","location":"Ventura","state":"California","country":"USA","imageURL":null,"remarks":"1985"},{"name":"Manresa State Beach","location":"Santa Cruz","state":"California","country":"USA","imageURL":null,"remarks":"1948"},{"name":"Marconi Conference Center State Historic Park","location":"Marin","state":"California","country":"USA","imageURL":null,"remarks":"1976"},{"name":"Marina State Beach","location":"Monterey","state":"California","country":"USA","imageURL":null,"remarks":"1977"},{"name":"Marsh Creek State Historic Park","location":"Contra Costa County","state":"California","country":"USA","imageURL":null,"remarks":"2012"},{"name":"Marshall Gold Discovery State Historic Park","location":"El Dorado","state":"California","country":"USA","imageURL":null,"remarks":"1942"},{"name":"Martial Cottle Park State Recreation Area","location":"Santa Clara","state":"California","country":"USA","imageURL":null,"remarks":"2003"},{"name":"McArthur-Burney Falls Memorial State Park","location":"Shasta","state":"California","country":"USA","imageURL":null,"remarks":"1920"},{"name":"McConnell State Recreation Area","location":"Merced","state":"California","country":"USA","imageURL":null,"remarks":"1949"},{"name":"McGrath State Beach","location":"Ventura","state":"California","country":"USA","imageURL":null,"remarks":"1948"},{"name":"McLaughlin Eastshore State Park State Seashore","location":"Alameda and Contra Costa","state":"California","country":"USA","imageURL":null,"remarks":"1985"},{"name":"Mendocino Headlands State Park","location":"Mendocino","state":"California","country":"USA","imageURL":null,"remarks":"1972"},{"name":"Mendocino Woodlands State Park","location":"Mendocino","state":"California","country":"USA","imageURL":null,"remarks":"1977"},{"name":"Millerton Lake State Recreation Area","location":"Fresno and Madera","state":"California","country":"USA","imageURL":null,"remarks":"1957"},{"name":"Mono Lake Tufa State Natural Reserve","location":"Mono","state":"California","country":"USA","imageURL":null,"remarks":"1982"},{"name":"Montaña de Oro State Park","location":"San Luis Obispo","state":"California","country":"USA","imageURL":null,"remarks":"1934"},{"name":"Montara State Beach","location":"San Mateo","state":"California","country":"USA","imageURL":null,"remarks":"1959"},{"name":"Monterey State Historic Park","location":"Monterey","state":"California","country":"USA","imageURL":null,"remarks":"1916"},{"name":"Monterey State Beach","location":"Monterey","state":"California","country":"USA","imageURL":null,"remarks":"1960"},{"name":"Montgomery Woods State Natural Reserve","location":"Mendocino","state":"California","country":"USA","imageURL":null,"remarks":"1947"},{"name":"Moonlight State Beach","location":"San Diego","state":"California","country":"USA","imageURL":null,"remarks":"1949"},{"name":"Morro Bay State Park","location":"San Luis Obispo","state":"California","country":"USA","imageURL":null,"remarks":"1934"},{"name":"Morro Strand State Beach","location":"San Luis Obispo","state":"California","country":"USA","imageURL":null,"remarks":"1932"},{"name":"Moss Landing State Beach","location":"Monterey","state":"California","country":"USA","imageURL":null,"remarks":"1972"},{"name":"Mount Diablo State Park","location":"Contra Costa","state":"California","country":"USA","imageURL":null,"remarks":"1931"},{"name":"Mount San Jacinto State Park","location":"Riverside","state":"California","country":"USA","imageURL":null,"remarks":"1930"},{"name":"Mount Tamalpais State Park","location":"Marin","state":"California","country":"USA","imageURL":null,"remarks":"1928"},{"name":"Natural Bridges State Beach","location":"Santa Cruz","state":"California","country":"USA","imageURL":null,"remarks":"1933"},{"name":"Navarro River Redwoods State Park","location":"Mendocino","state":"California","country":"USA","imageURL":null,"remarks":"1928"},{"name":"New Brighton State Beach","location":"Santa Cruz","state":"California","country":"USA","imageURL":null,"remarks":"1933"},{"name":"Oceano Dunes State Vehicular Recreation Area","location":"San Luis Obispo","state":"California","country":"USA","imageURL":null,"remarks":"1974"},{"name":"Ocotillo Wells State Vehicular Recreation Area","location":"Imperial and San Diego","state":"California","country":"USA","imageURL":null,"remarks":"1976"},{"name":"Old Sacramento State Historic Park","location":"Sacramento","state":"California","country":"USA","imageURL":null,"remarks":"1967"},{"name":"Old Town San Diego State Historic Park","location":"San Diego","state":"California","country":"USA","imageURL":null,"remarks":"1967"},{"name":"Olompali State Historic Park","location":"Marin","state":"California","country":"USA","imageURL":null,"remarks":"1977"},{"name":"Pacheco State Park","location":"Merced and Santa Clara","state":"California","country":"USA","imageURL":null,"remarks":"1995"},{"name":"Pacifica State Beach","location":"San Mateo","state":"California","country":"USA","imageURL":null,"remarks":"1979"},{"name":"Palomar Mountain State Park","location":"San Diego","state":"California","country":"USA","imageURL":null,"remarks":"1932"},{"name":"Pelican State Beach","location":"Del Norte","state":"California","country":"USA","imageURL":null,"remarks":"1947"},{"name":"Pescadero State Beach","location":"San Mateo","state":"California","country":"USA","imageURL":null,"remarks":"1958"},{"name":"Petaluma Adobe State Historic Park","location":"Sonoma","state":"California","country":"USA","imageURL":null,"remarks":"1951"},{"name":"Pfeiffer Big Sur State Park","location":"Monterey","state":"California","country":"USA","imageURL":null,"remarks":"1933"},{"name":"Picacho State Recreation Area","location":"Imperial","state":"California","country":"USA","imageURL":null,"remarks":"1960"},{"name":"Pigeon Point Light Station State Historic Park","location":"San Mateo","state":"California","country":"USA","imageURL":null,"remarks":"1981"},{"name":"Pío Pico State Historic Park","location":"Los Angeles","state":"California","country":"USA","imageURL":null,"remarks":"1917"},{"name":"Pismo State Beach","location":"San Luis Obispo","state":"California","country":"USA","imageURL":null,"remarks":"1935"},{"name":"Placerita Canyon State Park","location":"Los Angeles","state":"California","country":"USA","imageURL":null,"remarks":"1949"},{"name":"Plumas-Eureka State Park","location":"Plumas","state":"California","country":"USA","imageURL":null,"remarks":"1959"},{"name":"Point Cabrillo Light Station State Historic Park","location":"Mendocino","state":"California","country":"USA","imageURL":null,"remarks":"2002"},{"name":"Point Dume State Beach","location":"Los Angeles","state":"California","country":"USA","imageURL":null,"remarks":"1958"},{"name":"Point Lobos Ranch","location":"Monterey","state":"California","country":"USA","imageURL":null,"remarks":"1998"},{"name":"Point Lobos State Natural Reserve","location":"Monterey","state":"California","country":"USA","imageURL":null,"remarks":"1933"},{"name":"Point Mugu State Park","location":"Ventura","state":"California","country":"USA","imageURL":null,"remarks":"1966"},{"name":"Point Sal State Beach","location":"Santa Barbara","state":"California","country":"USA","imageURL":null,"remarks":"1948"},{"name":"Point Sur State Historic Park","location":"Monterey","state":"California","country":"USA","imageURL":null,"remarks":"1986"},{"name":"Pomponio State Beach","location":"San Mateo","state":"California","country":"USA","imageURL":null,"remarks":"1960"},{"name":"Portola Redwoods State Park","location":"San Mateo","state":"California","country":"USA","imageURL":null,"remarks":"1945"},{"name":"Prairie City State Vehicular Recreation Area","location":"Sacramento","state":"California","country":"USA","imageURL":null,"remarks":"1990"},{"name":"Prairie Creek Redwoods State Park","location":"Humboldt","state":"California","country":"USA","imageURL":null,"remarks":"1923"},{"name":"Providence Mountains State Recreation Area","location":"San Bernardino","state":"California","country":"USA","imageURL":null,"remarks":"1956"},{"name":"Railtown 1897 State Historic Park","location":"Tuolumne","state":"California","country":"USA","imageURL":null,"remarks":"1982"},{"name":"Rancho San Andrés Castro Adobe","location":"Santa Cruz","state":"California","country":"USA","imageURL":null,"remarks":"2002"},{"name":"Red Rock Canyon State Park","location":"Kern","state":"California","country":"USA","imageURL":null,"remarks":"1970"},{"name":"Refugio State Beach","location":"Santa Barbara","state":"California","country":"USA","imageURL":null,"remarks":"1950"},{"name":"Reynolds Wayside Campground","location":"Mendocino","state":"California","country":"USA","imageURL":null,"remarks":"1966"},{"name":"Richardson Grove State Park","location":"Humboldt","state":"California","country":"USA","imageURL":null,"remarks":"1922"},{"name":"Rio de Los Angeles State Park State Recreation Area","location":"Los Angeles","state":"California","country":"USA","imageURL":null,"remarks":"2001"},{"name":"Robert H. Meyer Memorial State Beach","location":"Los Angeles","state":"California","country":"USA","imageURL":null,"remarks":"1978"},{"name":"Robert Louis Stevenson State Park","location":"Napa, Sonoma, and Lake","state":"California","country":"USA","imageURL":null,"remarks":"1949"},{"name":"Robert W. Crown Memorial State Beach","location":"Alameda","state":"California","country":"USA","imageURL":null,"remarks":"1961"},{"name":"Russian Gulch State Park","location":"Mendocino","state":"California","country":"USA","imageURL":null,"remarks":"1933"},{"name":"Saddleback Butte State Park","location":"Los Angeles","state":"California","country":"USA","imageURL":null,"remarks":"1957"},{"name":"Salinas River State Beach","location":"Monterey and Santa Cruz","state":"California","country":"USA","imageURL":null,"remarks":"1960"},{"name":"Salt Point State Park","location":"Sonoma","state":"California","country":"USA","imageURL":null,"remarks":"1968"},{"name":"Salton Sea State Recreation Area","location":"Imperial and Riverside","state":"California","country":"USA","imageURL":null,"remarks":"1951"},{"name":"Samuel P. Taylor State Park","location":"Marin","state":"California","country":"USA","imageURL":null,"remarks":"1946"},{"name":"San Bruno Mountain State Park","location":"San Mateo","state":"California","country":"USA","imageURL":null,"remarks":"1980"},{"name":"San Buenaventura State Beach","location":"Ventura","state":"California","country":"USA","imageURL":null,"remarks":"1961"},{"name":"San Clemente State Beach","location":"Orange","state":"California","country":"USA","imageURL":null,"remarks":"1931"},{"name":"San Elijo State Beach","location":"San Diego","state":"California","country":"USA","imageURL":null,"remarks":"1952"},{"name":"San Gregorio State Beach","location":"San Mateo","state":"California","country":"USA","imageURL":null,"remarks":"1958"},{"name":"San Juan Bautista State Historic Park","location":"San Benito","state":"California","country":"USA","imageURL":null,"remarks":"1933"},{"name":"San Luis Reservoir State Recreation Area","location":"Merced","state":"California","country":"USA","imageURL":null,"remarks":"1969"},{"name":"San Onofre State Beach","location":"San Diego","state":"California","country":"USA","imageURL":null,"remarks":"1971"},{"name":"San Pasqual Battlefield State Historic Park","location":"San Diego","state":"California","country":"USA","imageURL":null,"remarks":"1918"},{"name":"San Timoteo Canyon","location":"Riverside","state":"California","country":"USA","imageURL":null,"remarks":"2002"},{"name":"Santa Cruz Mission State Historic Park","location":"Santa Cruz","state":"California","country":"USA","imageURL":null,"remarks":"1959"},{"name":"Santa Monica State Beach","location":"Los Angeles","state":"California","country":"USA","imageURL":null,"remarks":"1948"},{"name":"Santa Susana Pass State Historic Park","location":"Los Angeles","state":"California","country":"USA","imageURL":null,"remarks":"1979"},{"name":"Schooner Gulch State Beach","location":"Mendocino","state":"California","country":"USA","imageURL":null,"remarks":"1983"},{"name":"Seacliff State Beach","location":"Santa Cruz","state":"California","country":"USA","imageURL":null,"remarks":"1931"},{"name":"Shasta State Historic Park","location":"Shasta","state":"California","country":"USA","imageURL":null,"remarks":"1937"},{"name":"Silver Strand State Beach","location":"San Diego","state":"California","country":"USA","imageURL":null,"remarks":"1932"},{"name":"Silverwood Lake State Recreation Area","location":"San Bernardino","state":"California","country":"USA","imageURL":null,"remarks":"1978"},{"name":"Sinkyone Wilderness State Park","location":"Mendocino and Humboldt","state":"California","country":"USA","imageURL":null,"remarks":"1975"},{"name":"Smithe Redwoods State Natural Reserve","location":"Mendocino","state":"California","country":"USA","imageURL":null,"remarks":"1963"},{"name":"Sonoma State Historic Park","location":"Sonoma","state":"California","country":"USA","imageURL":null,"remarks":"1909"},{"name":"Sonoma Coast State Park","location":"Sonoma","state":"California","country":"USA","imageURL":null,"remarks":"1934"},{"name":"South Carlsbad State Beach","location":"San Diego","state":"California","country":"USA","imageURL":null,"remarks":"1949"},{"name":"South Yuba River State Park","location":"Nevada","state":"California","country":"USA","imageURL":null,"remarks":"1979"},{"name":"Standish-Hickey State Recreation Area","location":"Mendocino","state":"California","country":"USA","imageURL":null,"remarks":"1921"},{"name":"State Indian Museum","location":"Sacramento","state":"California","country":"USA","imageURL":null,"remarks":"1914"},{"name":"Stone Lake","location":"Sacramento","state":"California","country":"USA","imageURL":null,"remarks":"1978"},{"name":"Sue-meg State Park","location":"Humboldt","state":"California","country":"USA","imageURL":null,"remarks":"1930"},{"name":"Sugarloaf Ridge State Park","location":"Sonoma and Napa","state":"California","country":"USA","imageURL":null,"remarks":"1920"},{"name":"Sunset State Beach","location":"Santa Cruz","state":"California","country":"USA","imageURL":null,"remarks":"1931"},{"name":"Sutter Buttes State Park","location":"Sutter","state":"California","country":"USA","imageURL":null,"remarks":"2003"},{"name":"Sutter's Fort State Historic Park","location":"Sacramento","state":"California","country":"USA","imageURL":null,"remarks":"1914"},{"name":"Tahoe State Recreation Area","location":"Placer","state":"California","country":"USA","imageURL":null,"remarks":""},{"name":"Thornton State Beach","location":"San Mateo","state":"California","country":"USA","imageURL":null,"remarks":"1955"},{"name":"Tijuana Estuary","location":"San Diego","state":"California","country":"USA","imageURL":null,"remarks":""},{"name":"Tolowa Dunes State Park","location":"Del Norte","state":"California","country":"USA","imageURL":null,"remarks":"1983"},{"name":"Tomales Bay State Park","location":"Marin","state":"California","country":"USA","imageURL":null,"remarks":"1950"},{"name":"Tomo-Kahni State Historic Park","location":"Kern","state":"California","country":"USA","imageURL":null,"remarks":"1993"},{"name":"Topanga State Park","location":"Los Angeles","state":"California","country":"USA","imageURL":null,"remarks":"1967"},{"name":"Torrey Pines State Beach","location":"San Diego","state":"California","country":"USA","imageURL":null,"remarks":"1952"},{"name":"Torrey Pines State Natural Reserve","location":"San Diego","state":"California","country":"USA","imageURL":null,"remarks":"1952"},{"name":"Trinidad State Beach","location":"Humboldt","state":"California","country":"USA","imageURL":null,"remarks":"1937"},{"name":"Trione-Annadel State Park","location":"Sonoma","state":"California","country":"USA","imageURL":null,"remarks":"1971"},{"name":"Tule Elk State Natural Reserve","location":"Kern","state":"California","country":"USA","imageURL":null,"remarks":"1932"},{"name":"Turlock Lake State Recreation Area","location":"Stanislaus","state":"California","country":"USA","imageURL":null,"remarks":"1950"},{"name":"Twin Lakes State Beach","location":"Santa Cruz","state":"California","country":"USA","imageURL":null,"remarks":"1955"},{"name":"Van Damme State Park","location":"Mendocino","state":"California","country":"USA","imageURL":null,"remarks":"1932"},{"name":"Verdugo Mountains","location":"Los Angeles","state":"California","country":"USA","imageURL":null,"remarks":"1984"},{"name":"Ward Creek Project","location":"Placer","state":"California","country":"USA","imageURL":null,"remarks":"1978"},{"name":"Washoe Meadows State Park","location":"El Dorado","state":"California","country":"USA","imageURL":null,"remarks":"1985"},{"name":"Wassama Round House State Historic Park","location":"Madera","state":"California","country":"USA","imageURL":null,"remarks":"1978"},{"name":"Watts Towers of Simon Rodia State Historic Park","location":"Los Angeles","state":"California","country":"USA","imageURL":null,"remarks":"1978"},{"name":"Weaverville Joss House State Historic Park","location":"Trinity","state":"California","country":"USA","imageURL":null,"remarks":"1956"},{"name":"Westport-Union Landing State Beach","location":"Mendocino","state":"California","country":"USA","imageURL":null,"remarks":"1952"},{"name":"Wilder Ranch State Park","location":"Santa Cruz","state":"California","country":"USA","imageURL":null,"remarks":"1974"},{"name":"Wildwood Canyon","location":"Riverside","state":"California","country":"USA","imageURL":null,"remarks":"2002"},{"name":"Will Rogers State Beach","location":"Los Angeles","state":"California","country":"USA","imageURL":null,"remarks":"1931"},{"name":"Will Rogers State Historic Park","location":"Los Angeles","state":"California","country":"USA","imageURL":null,"remarks":"1944"},{"name":"William B. Ide Adobe State Historic Park","location":"Tehama","state":"California","country":"USA","imageURL":null,"remarks":"1951"},{"name":"Woodland Opera House State Historic Park","location":"Yolo","state":"California","country":"USA","imageURL":null,"remarks":"1980"},{"name":"Woodson Bridge State Recreation Area","location":"Tehama","state":"California","country":"USA","imageURL":null,"remarks":"1959"},{"name":"Zmudowski State Beach","location":"Monterey and Santa Cruz","state":"California","country":"USA","imageURL":null,"remarks":"1950"}]