[{"name":"acre","location":"ha","state":"Colorado","country":"USA","imageURL":null,"remarks":""},{"name":"Arkansas Headwaters Recreation Area","location":"Chaffee, Fremont, Lake, Pueblo","state":"Colorado","country":"USA","imageURL":null,"remarks":"1998"},{"name":"Barr Lake State Park","location":"Adams","state":"Colorado","country":"USA","imageURL":null,"remarks":"1977"},{"name":"Boyd Lake State Park","location":"Larimer","state":"Colorado","country":"USA","imageURL":null,"remarks":"1965"},{"name":"Castlewood Canyon State Park","location":"Douglas","state":"Colorado","country":"USA","imageURL":null,"remarks":"1964"},{"name":"Chatfield State Park","location":"Douglas,  Jefferson","state":"Colorado","country":"USA","imageURL":null,"remarks":"1975"},{"name":"Cherry Creek State Park","location":"Arapahoe","state":"Colorado","country":"USA","imageURL":null,"remarks":"1959"},{"name":"Cheyenne Mountain State Park","location":"El Paso","state":"Colorado","country":"USA","imageURL":null,"remarks":"2006"},{"name":"Crawford State Park","location":"Delta, Montrose","state":"Colorado","country":"USA","imageURL":null,"remarks":"1964"},{"name":"Eldorado Canyon State Park","location":"Boulder","state":"Colorado","country":"USA","imageURL":null,"remarks":"1978"},{"name":"Eleven Mile State Park","location":"Park","state":"Colorado","country":"USA","imageURL":null,"remarks":"1970"},{"name":"Elkhead Reservoir State Park","location":"Moffat, Routt","state":"Colorado","country":"USA","imageURL":null,"remarks":"2006"},{"name":"Fishers Peak State Park","location":"Las Animas","state":"Colorado","country":"USA","imageURL":null,"remarks":"2020"},{"name":"Golden Gate Canyon State Park","location":"Jefferson, Gilpin","state":"Colorado","country":"USA","imageURL":null,"remarks":"1960"},{"name":"Harvey Gap State Park","location":"Garfield","state":"Colorado","country":"USA","imageURL":null,"remarks":"1987"},{"name":"Highline Lake State Park","location":"Mesa","state":"Colorado","country":"USA","imageURL":null,"remarks":"1967"},{"name":"Jackson Lake State Park","location":"Morgan","state":"Colorado","country":"USA","imageURL":null,"remarks":"1965"},{"name":"James M. Robb - Colorado River State Park","location":"Mesa","state":"Colorado","country":"USA","imageURL":null,"remarks":"1994"},{"name":"John Martin Reservoir State Park","location":"Bent","state":"Colorado","country":"USA","imageURL":null,"remarks":"2001"},{"name":"Lake Pueblo State Park","location":"Pueblo","state":"Colorado","country":"USA","imageURL":null,"remarks":"1975"},{"name":"Lathrop State Park","location":"Huerfano","state":"Colorado","country":"USA","imageURL":null,"remarks":"1962"},{"name":"Lone Mesa State Park","location":"Dolores","state":"Colorado","country":"USA","imageURL":null,"remarks":"N/A"},{"name":"Lory State Park","location":"Larimer","state":"Colorado","country":"USA","imageURL":null,"remarks":"1975"},{"name":"Mancos State Park","location":"Montezuma","state":"Colorado","country":"USA","imageURL":null,"remarks":"1987"},{"name":"Mueller State Park","location":"Teller","state":"Colorado","country":"USA","imageURL":null,"remarks":"1988"},{"name":"Navajo State Park","location":"Archuleta, La Plata","state":"Colorado","country":"USA","imageURL":null,"remarks":"1964"},{"name":"North Sterling State Park","location":"Logan","state":"Colorado","country":"USA","imageURL":null,"remarks":"1992"},{"name":"Paonia State Park","location":"Gunnison","state":"Colorado","country":"USA","imageURL":null,"remarks":"1964"},{"name":"Pearl Lake State Park","location":"Routt","state":"Colorado","country":"USA","imageURL":null,"remarks":"1964"},{"name":"Ridgway State Park","location":"Ouray","state":"Colorado","country":"USA","imageURL":null,"remarks":"1989"},{"name":"Rifle Falls State Park","location":"Garfield","state":"Colorado","country":"USA","imageURL":null,"remarks":"1966"},{"name":"Rifle Gap State Park","location":"Garfield","state":"Colorado","country":"USA","imageURL":null,"remarks":"1966"},{"name":"Roxborough State Park","location":"Douglas","state":"Colorado","country":"USA","imageURL":null,"remarks":"1975"},{"name":"Spinney Mountain State Park","location":"Park","state":"Colorado","country":"USA","imageURL":null,"remarks":"1987"},{"name":"St. Vrain State Park","location":"Weld","state":"Colorado","country":"USA","imageURL":null,"remarks":"1965"},{"name":"Stagecoach State Park","location":"Routt","state":"Colorado","country":"USA","imageURL":null,"remarks":"1965"},{"name":"State Forest State Park","location":"Jackson, Larimer","state":"Colorado","country":"USA","imageURL":null,"remarks":"1970"},{"name":"Staunton State Park","location":"Park, Jefferson","state":"Colorado","country":"USA","imageURL":null,"remarks":"2013"},{"name":"Steamboat Lake State Park","location":"Routt","state":"Colorado","country":"USA","imageURL":null,"remarks":"1967"},{"name":"Sweetwater Lake State Park","location":"Garfield","state":"Colorado","country":"USA","imageURL":null,"remarks":"2021"},{"name":"Sweitzer Lake State Park","location":"Delta","state":"Colorado","country":"USA","imageURL":null,"remarks":"1972"},{"name":"Sylvan Lake State Park","location":"Eagle","state":"Colorado","country":"USA","imageURL":null,"remarks":"1987"},{"name":"Trinidad Lake State Park","location":"Las Animas","state":"Colorado","country":"USA","imageURL":null,"remarks":"1980"},{"name":"Vega State Park","location":"Mesa","state":"Colorado","country":"USA","imageURL":null,"remarks":"1967"},{"name":"Yampa River State Park","location":"Routt, Moffat","state":"Colorado","country":"USA","imageURL":null,"remarks":"1998"}]