[{"name":"Above All State Park","location":"Litchfield","state":"Connecticut","country":"USA","imageURL":null,"remarks":""},{"name":"Auerfarm State Park Scenic Reserve","location":"Hartford","state":"Connecticut","country":"USA","imageURL":null,"remarks":""},{"name":"Beaver Brook State Park","location":"Windham","state":"Connecticut","country":"USA","imageURL":null,"remarks":""},{"name":"Becket Hill State Park Reserve","location":"New London","state":"Connecticut","country":"USA","imageURL":null,"remarks":""},{"name":"Beckley Furnace Industrial Monument","location":"Litchfield","state":"Connecticut","country":"USA","imageURL":null,"remarks":""},{"name":"Bennett's Pond State Park","location":"Fairfield","state":"Connecticut","country":"USA","imageURL":null,"remarks":""},{"name":"Bigelow Hollow State Park","location":"Tolland","state":"Connecticut","country":"USA","imageURL":null,"remarks":""},{"name":"Black Rock State Park","location":"Litchfield","state":"Connecticut","country":"USA","imageURL":null,"remarks":""},{"name":"Bluff Point State Park","location":"New London","state":"Connecticut","country":"USA","imageURL":null,"remarks":""},{"name":"Bolton Notch State Park","location":"Tolland","state":"Connecticut","country":"USA","imageURL":null,"remarks":""},{"name":"Brainard Homestead State Park","location":"Middlesex","state":"Connecticut","country":"USA","imageURL":null,"remarks":""},{"name":"Burr Pond State Park","location":"Litchfield","state":"Connecticut","country":"USA","imageURL":null,"remarks":""},{"name":"Camp Columbia State Park/State Forest","location":"Litchfield","state":"Connecticut","country":"USA","imageURL":null,"remarks":""},{"name":"Campbell Falls State Park Reserve","location":"Litchfield","state":"Connecticut","country":"USA","imageURL":null,"remarks":""},{"name":"Chatfield Hollow State Park","location":"Middlesex","state":"Connecticut","country":"USA","imageURL":null,"remarks":""},{"name":"Collis P. Huntington State Park","location":"Fairfield","state":"Connecticut","country":"USA","imageURL":null,"remarks":""},{"name":"Connecticut Valley Railroad State Park","location":"Middlesex","state":"Connecticut","country":"USA","imageURL":null,"remarks":""},{"name":"Dart Island State Park","location":"Middlesex","state":"Connecticut","country":"USA","imageURL":null,"remarks":""},{"name":"Day Pond State Park","location":"New London","state":"Connecticut","country":"USA","imageURL":null,"remarks":""},{"name":"Dennis Hill State Park","location":"Litchfield","state":"Connecticut","country":"USA","imageURL":null,"remarks":""},{"name":"Devil's Hopyard State Park","location":"Middlesex","state":"Connecticut","country":"USA","imageURL":null,"remarks":""},{"name":"Dinosaur State Park","location":"Hartford","state":"Connecticut","country":"USA","imageURL":null,"remarks":""},{"name":"Eagle Landing State Park","location":"Middlesex","state":"Connecticut","country":"USA","imageURL":null,"remarks":""},{"name":"Farm River State Park","location":"New Haven","state":"Connecticut","country":"USA","imageURL":null,"remarks":""},{"name":"Ferry Landing State Park","location":"New London","state":"Connecticut","country":"USA","imageURL":null,"remarks":""},{"name":"Fort Griswold Battlefield State Park","location":"New London","state":"Connecticut","country":"USA","imageURL":null,"remarks":""},{"name":"Fort Trumbull State Park","location":"New London","state":"Connecticut","country":"USA","imageURL":null,"remarks":""},{"name":"Gardner Lake State Park","location":"New London","state":"Connecticut","country":"USA","imageURL":null,"remarks":""},{"name":"Gay City State Park","location":"Tolland","state":"Connecticut","country":"USA","imageURL":null,"remarks":""},{"name":"George Dudley Seymour State Park","location":"Middlesex","state":"Connecticut","country":"USA","imageURL":null,"remarks":""},{"name":"George Waldo State Park","location":"New Haven","state":"Connecticut","country":"USA","imageURL":null,"remarks":""},{"name":"Gillette Castle State Park","location":"Middlesex","state":"Connecticut","country":"USA","imageURL":null,"remarks":""},{"name":"Haddam Island State Park","location":"Middlesex","state":"Connecticut","country":"USA","imageURL":null,"remarks":""},{"name":"Haddam Meadows State Park","location":"Middlesex","state":"Connecticut","country":"USA","imageURL":null,"remarks":""},{"name":"Haley Farm State Park","location":"New London","state":"Connecticut","country":"USA","imageURL":null,"remarks":""},{"name":"Hammonasset Beach State Park","location":"New Haven","state":"Connecticut","country":"USA","imageURL":null,"remarks":""},{"name":"Harkness Memorial State Park","location":"New London","state":"Connecticut","country":"USA","imageURL":null,"remarks":""},{"name":"Haystack Mountain State Park","location":"Litchfield","state":"Connecticut","country":"USA","imageURL":null,"remarks":""},{"name":"Higganum Reservoir State Park","location":"Middlesex","state":"Connecticut","country":"USA","imageURL":null,"remarks":""},{"name":"Hopemead State Park","location":"New London","state":"Connecticut","country":"USA","imageURL":null,"remarks":""},{"name":"Hopeville Pond State Park","location":"New London","state":"Connecticut","country":"USA","imageURL":null,"remarks":""},{"name":"Horse Guard State Park","location":"Hartford","state":"Connecticut","country":"USA","imageURL":null,"remarks":""},{"name":"Housatonic Meadows State Park","location":"Litchfield","state":"Connecticut","country":"USA","imageURL":null,"remarks":""},{"name":"Humaston Brook State Park","location":"Litchfield","state":"Connecticut","country":"USA","imageURL":null,"remarks":""},{"name":"Hurd State Park","location":"Middlesex","state":"Connecticut","country":"USA","imageURL":null,"remarks":""},{"name":"Indian Well State Park","location":"Fairfield","state":"Connecticut","country":"USA","imageURL":null,"remarks":""},{"name":"John A. Minetto State Park","location":"Litchfield","state":"Connecticut","country":"USA","imageURL":null,"remarks":""},{"name":"Kent Falls State Park","location":"Litchfield","state":"Connecticut","country":"USA","imageURL":null,"remarks":""},{"name":"Kettletown State Park","location":"New Haven","state":"Connecticut","country":"USA","imageURL":null,"remarks":""},{"name":"Killingly Pond State Park","location":"Windham","state":"Connecticut","country":"USA","imageURL":null,"remarks":""},{"name":"Lake Waramaug State Park","location":"Litchfield","state":"Connecticut","country":"USA","imageURL":null,"remarks":""},{"name":"Lamentation Mountain State Park","location":"Hartford","state":"Connecticut","country":"USA","imageURL":null,"remarks":""},{"name":"Lovers Leap State Park","location":"Litchfield","state":"Connecticut","country":"USA","imageURL":null,"remarks":""},{"name":"Macedonia Brook State Park","location":"Litchfield","state":"Connecticut","country":"USA","imageURL":null,"remarks":""},{"name":"Machimoodus State Park","location":"Middlesex","state":"Connecticut","country":"USA","imageURL":null,"remarks":""},{"name":"Mansfield Hollow State Park","location":"Tolland","state":"Connecticut","country":"USA","imageURL":null,"remarks":""},{"name":"Mashamoquet Brook State Park","location":"Windham","state":"Connecticut","country":"USA","imageURL":null,"remarks":""},{"name":"Mianus River State Park","location":"Fairfield","state":"Connecticut","country":"USA","imageURL":null,"remarks":""},{"name":"Millers Pond State Park","location":"Middlesex","state":"Connecticut","country":"USA","imageURL":null,"remarks":""},{"name":"Minnie Island State Park","location":"New London","state":"Connecticut","country":"USA","imageURL":null,"remarks":""},{"name":"Mohawk Forest/Mohawk Mountain State Park","location":"Litchfield","state":"Connecticut","country":"USA","imageURL":null,"remarks":""},{"name":"Mono Pond State Park Reserve","location":"Tolland","state":"Connecticut","country":"USA","imageURL":null,"remarks":""},{"name":"Mooween State Park","location":"New London","state":"Connecticut","country":"USA","imageURL":null,"remarks":""},{"name":"Mount Bushnell State Park","location":"Litchfield","state":"Connecticut","country":"USA","imageURL":null,"remarks":""},{"name":"Mount Riga State Park","location":"Litchfield","state":"Connecticut","country":"USA","imageURL":null,"remarks":""},{"name":"Mount Tom State Park","location":"Litchfield","state":"Connecticut","country":"USA","imageURL":null,"remarks":""},{"name":"Nathaniel Lyon Memorial State Park","location":"Windham","state":"Connecticut","country":"USA","imageURL":null,"remarks":""},{"name":"Old Furnace State Park","location":"Windham","state":"Connecticut","country":"USA","imageURL":null,"remarks":""},{"name":"Osbornedale State Park","location":"New Haven","state":"Connecticut","country":"USA","imageURL":null,"remarks":""},{"name":"Penwood State Park","location":"Hartford","state":"Connecticut","country":"USA","imageURL":null,"remarks":""},{"name":"Platt Hill State Park","location":"Litchfield","state":"Connecticut","country":"USA","imageURL":null,"remarks":""},{"name":"Pomeroy State Park","location":"New London","state":"Connecticut","country":"USA","imageURL":null,"remarks":""},{"name":"Putnam Memorial State Park","location":"Fairfield","state":"Connecticut","country":"USA","imageURL":null,"remarks":""},{"name":"Quaddick State Park","location":"Windham","state":"Connecticut","country":"USA","imageURL":null,"remarks":""},{"name":"Quinebaug Lake State Park","location":"Windham","state":"Connecticut","country":"USA","imageURL":null,"remarks":""},{"name":"Quinnipiac River State Park","location":"New Haven","state":"Connecticut","country":"USA","imageURL":null,"remarks":""},{"name":"River Highlands State Park","location":"Middlesex","state":"Connecticut","country":"USA","imageURL":null,"remarks":""},{"name":"Rocky Glen State Park","location":"Fairfield","state":"Connecticut","country":"USA","imageURL":null,"remarks":""},{"name":"Rocky Neck State Park","location":"New London","state":"Connecticut","country":"USA","imageURL":null,"remarks":""},{"name":"Ross Pond State Park","location":"Windham","state":"Connecticut","country":"USA","imageURL":null,"remarks":""},{"name":"Salt Rock State Campground","location":"New London","state":"Connecticut","country":"USA","imageURL":null,"remarks":""},{"name":"Satan's Kingdom State Recreation Area","location":"Litchfield","state":"Connecticut","country":"USA","imageURL":null,"remarks":""},{"name":"Scantic River State Park","location":"Hartford","state":"Connecticut","country":"USA","imageURL":null,"remarks":""},{"name":"Selden Neck State Park","location":"New London","state":"Connecticut","country":"USA","imageURL":null,"remarks":""},{"name":"Seth Low Pierrepont State Park Reserve","location":"Fairfield","state":"Connecticut","country":"USA","imageURL":null,"remarks":""},{"name":"Seaside State Park","location":"New London","state":"Connecticut","country":"USA","imageURL":null,"remarks":""},{"name":"Sherwood Island State Park","location":"Fairfield","state":"Connecticut","country":"USA","imageURL":null,"remarks":""},{"name":"Silver Sands State Park","location":"New Haven","state":"Connecticut","country":"USA","imageURL":null,"remarks":""},{"name":"Sleeping Giant State Park","location":"New Haven","state":"Connecticut","country":"USA","imageURL":null,"remarks":""},{"name":"Southford Falls State Park","location":"New Haven","state":"Connecticut","country":"USA","imageURL":null,"remarks":""},{"name":"Squantz Pond State Park","location":"Fairfield","state":"Connecticut","country":"USA","imageURL":null,"remarks":""},{"name":"Stillwater Pond State Park","location":"Litchfield","state":"Connecticut","country":"USA","imageURL":null,"remarks":""},{"name":"Stoddard Hill State Park","location":"New London","state":"Connecticut","country":"USA","imageURL":null,"remarks":""},{"name":"Stratton Brook State Park","location":"Hartford","state":"Connecticut","country":"USA","imageURL":null,"remarks":""},{"name":"Sunnybrook State Park","location":"Litchfield","state":"Connecticut","country":"USA","imageURL":null,"remarks":""},{"name":"Sunrise State Park","location":"Middlesex","state":"Connecticut","country":"USA","imageURL":null,"remarks":""},{"name":"Talcott Mountain State Park","location":"Hartford","state":"Connecticut","country":"USA","imageURL":null,"remarks":""},{"name":"Tri-Mountain State Park","location":"Middlesex, New Haven","state":"Connecticut","country":"USA","imageURL":null,"remarks":""},{"name":"Trout Brook Valley State Park Reserve","location":"Fairfield","state":"Connecticut","country":"USA","imageURL":null,"remarks":""},{"name":"Wadsworth Falls State Park","location":"Middlesex","state":"Connecticut","country":"USA","imageURL":null,"remarks":""},{"name":"West Rock Ridge State Park","location":"New Haven","state":"Connecticut","country":"USA","imageURL":null,"remarks":""},{"name":"Wharton Brook State Park","location":"New Haven","state":"Connecticut","country":"USA","imageURL":null,"remarks":""},{"name":"Whittemore Glen State Park","location":"New Haven","state":"Connecticut","country":"USA","imageURL":null,"remarks":""},{"name":"Windsor Meadows State Park","location":"Hartford","state":"Connecticut","country":"USA","imageURL":null,"remarks":""},{"name":"Wooster Mountain State Park","location":"Fairfield","state":"Connecticut","country":"USA","imageURL":null,"remarks":""}]