[{"name":"A.H. Stephens State Park","location":"Taliaferro","state":"Georgia","country":"USA","imageURL":null,"remarks":null},{"name":"Amicalola Falls State Park & Lodge","location":"Dawson","state":"Georgia","country":"USA","imageURL":null,"remarks":null},{"name":"Black Rock Mountain State Park","location":"Rabun","state":"Georgia","country":"USA","imageURL":null,"remarks":null},{"name":"Chattahoochee Bend State Park","location":"Coweta","state":"Georgia","country":"USA","imageURL":null,"remarks":null},{"name":"Cloudland Canyon State Park","location":"Dade","state":"Georgia","country":"USA","imageURL":null,"remarks":null},{"name":"Crooked River State Park","location":"Camden","state":"Georgia","country":"USA","imageURL":null,"remarks":null},{"name":"Don Carter State Park","location":"Hall","state":"Georgia","country":"USA","imageURL":null,"remarks":null},{"name":"Elijah Clark State Park","location":"Lincoln","state":"Georgia","country":"USA","imageURL":null,"remarks":null},{"name":"F. D. Roosevelt State Park","location":"Harris,  Meriwether","state":"Georgia","country":"USA","imageURL":null,"remarks":null},{"name":"Florence Marina State Park","location":"Stewart","state":"Georgia","country":"USA","imageURL":null,"remarks":null},{"name":"Fort McAllister State Park","location":"Bryan","state":"Georgia","country":"USA","imageURL":null,"remarks":null},{"name":"Fort Mountain State Park","location":"Murray","state":"Georgia","country":"USA","imageURL":null,"remarks":null},{"name":"Fort Yargo State Park","location":"Barrow","state":"Georgia","country":"USA","imageURL":null,"remarks":null},{"name":"General Coffee State Park","location":"Coffee","state":"Georgia","country":"USA","imageURL":null,"remarks":null},{"name":"George L. Smith State Park","location":"Emanuel","state":"Georgia","country":"USA","imageURL":null,"remarks":null},{"name":"George T. Bagby State Park","location":"Clay","state":"Georgia","country":"USA","imageURL":null,"remarks":null},{"name":"Georgia Veterans State Park","location":"Crisp","state":"Georgia","country":"USA","imageURL":null,"remarks":null},{"name":"Jack Hill State Park","location":"Tattnall","state":"Georgia","country":"USA","imageURL":null,"remarks":null},{"name":"Hamburg State Park","location":"Warren","state":"Georgia","country":"USA","imageURL":null,"remarks":null},{"name":"Hard Labor Creek State Park","location":"Morgan","state":"Georgia","country":"USA","imageURL":null,"remarks":null},{"name":"High Falls State Park","location":"Monroe","state":"Georgia","country":"USA","imageURL":null,"remarks":null},{"name":"Indian Springs State Park","location":"Butts","state":"Georgia","country":"USA","imageURL":null,"remarks":null},{"name":"James H. Floyd State Park","location":"Chattooga","state":"Georgia","country":"USA","imageURL":null,"remarks":null},{"name":"Kolomoki Mounds State Park","location":"Early","state":"Georgia","country":"USA","imageURL":null,"remarks":null},{"name":"Laura S. Walker State Park","location":"Ware","state":"Georgia","country":"USA","imageURL":null,"remarks":null},{"name":"Little Ocmulgee State Park & Lodge","location":"Telfair","state":"Georgia","country":"USA","imageURL":null,"remarks":null},{"name":"Magnolia Springs State Park","location":"Jenkins","state":"Georgia","country":"USA","imageURL":null,"remarks":null},{"name":"Mistletoe State Park","location":"Columbia","state":"Georgia","country":"USA","imageURL":null,"remarks":null},{"name":"Moccasin Creek State Park","location":"Rabun","state":"Georgia","country":"USA","imageURL":null,"remarks":null},{"name":"Panola Mountain State Park","location":"Henry","state":"Georgia","country":"USA","imageURL":null,"remarks":null},{"name":"Providence Canyon State Outdoor Recreation Area","location":"Stewart","state":"Georgia","country":"USA","imageURL":null,"remarks":null},{"name":"Red Top Mountain State Park","location":"Bartow","state":"Georgia","country":"USA","imageURL":null,"remarks":null},{"name":"Reed Bingham State Park","location":"Colquitt","state":"Georgia","country":"USA","imageURL":null,"remarks":null},{"name":"Richard B. Russell State Park","location":"Elbert","state":"Georgia","country":"USA","imageURL":null,"remarks":null},{"name":"Seminole State Park","location":"Seminole","state":"Georgia","country":"USA","imageURL":null,"remarks":null},{"name":"Skidaway Island State Park","location":"Chatham","state":"Georgia","country":"USA","imageURL":null,"remarks":null},{"name":"Smithgall Woods State Park","location":"White","state":"Georgia","country":"USA","imageURL":null,"remarks":null},{"name":"Stephen C. Foster State Park","location":"Charlton","state":"Georgia","country":"USA","imageURL":null,"remarks":null},{"name":"Sweetwater Creek State Park","location":"Douglas","state":"Georgia","country":"USA","imageURL":null,"remarks":null},{"name":"Tallulah Gorge State Park","location":"Rabun, Habersham","state":"Georgia","country":"USA","imageURL":null,"remarks":null},{"name":"Tugaloo State Park","location":"Franklin","state":"Georgia","country":"USA","imageURL":null,"remarks":null},{"name":"Unicoi State Park & Lodge","location":"White","state":"Georgia","country":"USA","imageURL":null,"remarks":null},{"name":"Victoria Bryant State Park","location":"Franklin","state":"Georgia","country":"USA","imageURL":null,"remarks":null},{"name":"Vogel State Park","location":"Union","state":"Georgia","country":"USA","imageURL":null,"remarks":null},{"name":"Watson Mill Bridge State Park","location":"Madison","state":"Georgia","country":"USA","imageURL":null,"remarks":null}]