[{"name":"","location":"","state":"Idaho","country":"USA","imageURL":null,"remarks":""},{"name":"Ashton to Tetonia Trail","location":"Fremont, Teton","state":"Idaho","country":"USA","imageURL":null,"remarks":"2010"},{"name":"Bear Lake State Park","location":"Bear Lake","state":"Idaho","country":"USA","imageURL":null,"remarks":"1969"},{"name":"Bruneau Dunes State Park","location":"Owyhee","state":"Idaho","country":"USA","imageURL":null,"remarks":"1967"},{"name":"Castle Rocks State Park","location":"Cassia","state":"Idaho","country":"USA","imageURL":null,"remarks":"2003"},{"name":"City of Rocks National Reserve","location":"Cassia","state":"Idaho","country":"USA","imageURL":null,"remarks":"1988"},{"name":"Coeur d'Alene Parkway State Park","location":"Kootenai","state":"Idaho","country":"USA","imageURL":null,"remarks":""},{"name":"Dworshak State Park","location":"Clearwater","state":"Idaho","country":"USA","imageURL":null,"remarks":"1989"},{"name":"Eagle Island State Park","location":"Ada","state":"Idaho","country":"USA","imageURL":null,"remarks":"1983"},{"name":"Farragut State Park","location":"Kootenai","state":"Idaho","country":"USA","imageURL":null,"remarks":"1966"},{"name":"Harriman State Park","location":"Fremont","state":"Idaho","country":"USA","imageURL":null,"remarks":"1977"},{"name":"Hells Gate State Park","location":"Idaho","state":"Idaho","country":"USA","imageURL":null,"remarks":"1973"},{"name":"Henrys Lake State Park","location":"Fremont","state":"Idaho","country":"USA","imageURL":null,"remarks":"1973"},{"name":"Heyburn State Park","location":"Benewah","state":"Idaho","country":"USA","imageURL":null,"remarks":"1908"},{"name":"Lake Cascade State Park","location":"Valley","state":"Idaho","country":"USA","imageURL":null,"remarks":"1999"},{"name":"Lake Walcott State Park","location":"Minidoka","state":"Idaho","country":"USA","imageURL":null,"remarks":"1999"},{"name":"Land of the Yankee Fork State Park","location":"Custer","state":"Idaho","country":"USA","imageURL":null,"remarks":"1990"},{"name":"Lucky Peak State Park","location":"Ada","state":"Idaho","country":"USA","imageURL":null,"remarks":"1956"},{"name":"Massacre Rocks State Park","location":"Power","state":"Idaho","country":"USA","imageURL":null,"remarks":"1967"},{"name":"McCroskey State Park","location":"Benewah, Latah","state":"Idaho","country":"USA","imageURL":null,"remarks":"1955"},{"name":"Old Mission State Park","location":"Kootenai","state":"Idaho","country":"USA","imageURL":null,"remarks":"1975"},{"name":"Ponderosa State Park","location":"Valley","state":"Idaho","country":"USA","imageURL":null,"remarks":"1973"},{"name":"Priest Lake State Park","location":"Bonner","state":"Idaho","country":"USA","imageURL":null,"remarks":"1973"},{"name":"Round Lake State Park","location":"Bonner","state":"Idaho","country":"USA","imageURL":null,"remarks":"1965"},{"name":"Thousand Springs State Park","location":"Gooding","state":"Idaho","country":"USA","imageURL":null,"remarks":"2005"},{"name":"Three Island Crossing State Park","location":"Elmore","state":"Idaho","country":"USA","imageURL":null,"remarks":"1968"},{"name":"Trail of the Coeur d'Alenes","location":"Benewah, Kootenai, Shoshone","state":"Idaho","country":"USA","imageURL":null,"remarks":"2004"},{"name":"Winchester Lake State Park","location":"Lewis","state":"Idaho","country":"USA","imageURL":null,"remarks":"1969"}]