[{"name":"Adeline Jay Geo-Karis Illinois Beach State Park","location":"Lake","state":"Illinois","country":"USA","imageURL":null,"remarks":""},{"name":"Anderson Lake State Fish & Wildlife Area","location":"Fulton","state":"Illinois","country":"USA","imageURL":null,"remarks":""},{"name":"Apple River Canyon State Park","location":"Jo Daviess","state":"Illinois","country":"USA","imageURL":null,"remarks":""},{"name":"Argyle Lake State Park","location":"McDonough","state":"Illinois","country":"USA","imageURL":null,"remarks":""},{"name":"Baldwin Lake State Fish & Wildlife Area","location":"Randolph","state":"Illinois","country":"USA","imageURL":null,"remarks":""},{"name":"Banner Marsh State Fish and Wildlife Area","location":"Fulton","state":"Illinois","country":"USA","imageURL":null,"remarks":""},{"name":"Bartlett Woods Nature Preserve","location":"Lee","state":"Illinois","country":"USA","imageURL":null,"remarks":""},{"name":"Beall Woods State Park","location":"Wabash","state":"Illinois","country":"USA","imageURL":null,"remarks":""},{"name":"Beaver Dam State Park","location":"Macoupin","state":"Illinois","country":"USA","imageURL":null,"remarks":""},{"name":"Big River State Forest","location":"Henderson","state":"Illinois","country":"USA","imageURL":null,"remarks":""},{"name":"Bohm Woods Nature Preserve","location":"Madison","state":"Illinois","country":"USA","imageURL":null,"remarks":""},{"name":"Buffalo Rock State Park & Effigy Tumuli","location":"LaSalle","state":"Illinois","country":"USA","imageURL":null,"remarks":""},{"name":"Cache River State Natural Area","location":"Johnson","state":"Illinois","country":"USA","imageURL":null,"remarks":""},{"name":"Cape Bend State Fish and Wildlife Area","location":"Alexander","state":"Illinois","country":"USA","imageURL":null,"remarks":""},{"name":"Carlyle Lake State Fish and Wildlife Area","location":"Fayette","state":"Illinois","country":"USA","imageURL":null,"remarks":""},{"name":"Castle Rock State Park","location":"Ogle","state":"Illinois","country":"USA","imageURL":null,"remarks":""},{"name":"Cave-in-Rock State Park","location":"Hardin","state":"Illinois","country":"USA","imageURL":null,"remarks":""},{"name":"Chain O'Lakes State Park","location":"McHenry","state":"Illinois","country":"USA","imageURL":null,"remarks":""},{"name":"Channahon State Park","location":"Will","state":"Illinois","country":"USA","imageURL":null,"remarks":""},{"name":"Clinton Lake State Recreation Area","location":"DeWitt","state":"Illinois","country":"USA","imageURL":null,"remarks":""},{"name":"Coffeen Lake State Fish and Wildlife Area","location":"Montgomery","state":"Illinois","country":"USA","imageURL":null,"remarks":""},{"name":"Crawford County State Fish and Wildlife Area","location":"Crawford","state":"Illinois","country":"USA","imageURL":null,"remarks":""},{"name":"Delabar State Park","location":"Henderson","state":"Illinois","country":"USA","imageURL":null,"remarks":""},{"name":"Des Plaines Fish and Wildlife Area","location":"Will","state":"Illinois","country":"USA","imageURL":null,"remarks":""},{"name":"Dixon Springs State Park","location":"Pope","state":"Illinois","country":"USA","imageURL":null,"remarks":""},{"name":"Donnelley/Depue State Park","location":"Putnam","state":"Illinois","country":"USA","imageURL":null,"remarks":""},{"name":"Double T State Fish and Wildlife Area","location":"Fulton","state":"Illinois","country":"USA","imageURL":null,"remarks":""},{"name":"Eagle Creek State Recreation Area","location":"Shelby","state":"Illinois","country":"USA","imageURL":null,"remarks":""},{"name":"Edward R. Madigan State Fish and Wildlife Area","location":"Logan","state":"Illinois","country":"USA","imageURL":null,"remarks":""},{"name":"Eldon Hazlet State Recreation Area","location":"Clinton","state":"Illinois","country":"USA","imageURL":null,"remarks":""},{"name":"Ferne Clyffe State Park","location":"Johnson","state":"Illinois","country":"USA","imageURL":null,"remarks":""},{"name":"Fort Massac State Park","location":"Massac","state":"Illinois","country":"USA","imageURL":null,"remarks":""},{"name":"Fox Ridge State Park","location":"Coles","state":"Illinois","country":"USA","imageURL":null,"remarks":""},{"name":"Frank Holten State Recreation Area","location":"St. Clair","state":"Illinois","country":"USA","imageURL":null,"remarks":""},{"name":"Franklin Creek State Natural Area","location":"Lee","state":"Illinois","country":"USA","imageURL":null,"remarks":""},{"name":"Fults Hill Prairie State Natural Area","location":"Monroe","state":"Illinois","country":"USA","imageURL":null,"remarks":""},{"name":"Gebhard Woods State Park","location":"Grundy","state":"Illinois","country":"USA","imageURL":null,"remarks":""},{"name":"Giant City State Park","location":"Jackson, Union","state":"Illinois","country":"USA","imageURL":null,"remarks":""},{"name":"Golconda Marina State Recreation Area","location":"Pope","state":"Illinois","country":"USA","imageURL":null,"remarks":""},{"name":"Goose Lake Prairie State Natural Area","location":"Grundy","state":"Illinois","country":"USA","imageURL":null,"remarks":""},{"name":"Green River State Wildlife Area","location":"Lee","state":"Illinois","country":"USA","imageURL":null,"remarks":""},{"name":"Hamilton County State Fish and Wildlife Area","location":"Hamilton","state":"Illinois","country":"USA","imageURL":null,"remarks":""},{"name":"Harry \"Babe\" Woodyard State Natural Area","location":"Vermilion","state":"Illinois","country":"USA","imageURL":null,"remarks":""},{"name":"Hazel & Bill Rutherford Wildlife Prairie State Park","location":"Peoria","state":"Illinois","country":"USA","imageURL":null,"remarks":""},{"name":"Heidecke Lake State Fish & Wildlife Area","location":"Grundy","state":"Illinois","country":"USA","imageURL":null,"remarks":""},{"name":"Hennepin Canal Parkway State Park","location":"Bureau, Lee, Whiteside, Rock Island, Henry","state":"Illinois","country":"USA","imageURL":null,"remarks":"104.5-mile (168.2 km) linear park (W To Moline then N to Rock Falls vic.)"},{"name":"Hidden Springs State Forest","location":"Shelby","state":"Illinois","country":"USA","imageURL":null,"remarks":""},{"name":"Horseshoe Lake State Fish & Wildlife Area","location":"Alexander","state":"Illinois","country":"USA","imageURL":null,"remarks":""},{"name":"Horseshoe Lake State Park","location":"Madison","state":"Illinois","country":"USA","imageURL":null,"remarks":""},{"name":"Illini State Park","location":"LaSalle","state":"Illinois","country":"USA","imageURL":null,"remarks":""},{"name":"Illinois Caverns State Natural Area","location":"Monroe","state":"Illinois","country":"USA","imageURL":null,"remarks":"9.6 km of the park are passages underground."},{"name":"Iroquois County State Wildlife Area","location":"Iroquois","state":"Illinois","country":"USA","imageURL":null,"remarks":"Occupies the edge of the former Glacial Lake Watseka."},{"name":"James \"Pate\" Philip State Park","location":"DuPage, Kane","state":"Illinois","country":"USA","imageURL":null,"remarks":""},{"name":"Jim Edgar Panther Creek State Fish and Wildlife Area","location":"Cass","state":"Illinois","country":"USA","imageURL":null,"remarks":""},{"name":"Johnson-Sauk Trail State Park","location":"Henry","state":"Illinois","country":"USA","imageURL":null,"remarks":""},{"name":"Jubilee College State Park","location":"Peoria","state":"Illinois","country":"USA","imageURL":null,"remarks":""},{"name":"Kankakee River State Park","location":"Kankakee, Will","state":"Illinois","country":"USA","imageURL":null,"remarks":""},{"name":"Kaskaskia River State Fish & Wildlife Area","location":"St. Clair, Monroe, Randolph","state":"Illinois","country":"USA","imageURL":null,"remarks":""},{"name":"Kickapoo State Recreation Area","location":"Vermilion","state":"Illinois","country":"USA","imageURL":null,"remarks":""},{"name":"Kinkaid Lake State Fish and Wildlife Area","location":"Jackson","state":"Illinois","country":"USA","imageURL":null,"remarks":""},{"name":"Kishwaukee River State Fish and Wildlife Area","location":"DeKalb","state":"Illinois","country":"USA","imageURL":null,"remarks":""},{"name":"Lake Le-Aqua-Na State Park","location":"Stephenson","state":"Illinois","country":"USA","imageURL":null,"remarks":""},{"name":"Lake Murphysboro State Park","location":"Jackson","state":"Illinois","country":"USA","imageURL":null,"remarks":""},{"name":"LaSalle Lake State Fish & Wildlife Area","location":"LaSalle","state":"Illinois","country":"USA","imageURL":null,"remarks":""},{"name":"Lewis and Clark State Historic Site","location":"Madison","state":"Illinois","country":"USA","imageURL":null,"remarks":""},{"name":"Lincoln Trail Homestead State Memorial","location":"Macon","state":"Illinois","country":"USA","imageURL":null,"remarks":""},{"name":"Lincoln Trail State Park","location":"Clark","state":"Illinois","country":"USA","imageURL":null,"remarks":""},{"name":"Lowden State Park","location":"Ogle","state":"Illinois","country":"USA","imageURL":null,"remarks":""},{"name":"Mackinaw River State Fish and Wildlife Area","location":"Tazewell","state":"Illinois","country":"USA","imageURL":null,"remarks":""},{"name":"Marshall State Fish & Wildlife Area","location":"Marshall","state":"Illinois","country":"USA","imageURL":null,"remarks":""},{"name":"Matthiessen State Park","location":"LaSalle","state":"Illinois","country":"USA","imageURL":null,"remarks":""},{"name":"Mautino State Fish and Wildlife Area","location":"Bureau","state":"Illinois","country":"USA","imageURL":null,"remarks":""},{"name":"Mazonia/Braidwood State Fish and Wildlife Area","location":"Grundy","state":"Illinois","country":"USA","imageURL":null,"remarks":""},{"name":"Mermet Lake State Fish and Wildlife Area","location":"Massac","state":"Illinois","country":"USA","imageURL":null,"remarks":""},{"name":"Middle Fork State Fish and Wildlife Area","location":"Vermilion","state":"Illinois","country":"USA","imageURL":null,"remarks":""},{"name":"Mississippi Palisades State Park","location":"Carroll","state":"Illinois","country":"USA","imageURL":null,"remarks":""},{"name":"Mississippi River State Fish and Wildlife Area","location":"Jersey, Calhoun","state":"Illinois","country":"USA","imageURL":null,"remarks":""},{"name":"Mitchell's Grove Nature Preserve","location":"La Salle","state":"Illinois","country":"USA","imageURL":null,"remarks":""},{"name":"Moraine Hills State Park","location":"McHenry","state":"Illinois","country":"USA","imageURL":null,"remarks":""},{"name":"Moraine View State Recreation Area","location":"McLean","state":"Illinois","country":"USA","imageURL":null,"remarks":""},{"name":"Morrison-Rockwood State Park","location":"Whiteside","state":"Illinois","country":"USA","imageURL":null,"remarks":""},{"name":"Nauvoo State Park","location":"Hancock","state":"Illinois","country":"USA","imageURL":null,"remarks":""},{"name":"Newton Lake State Fish and Wildlife Area","location":"Jasper","state":"Illinois","country":"USA","imageURL":null,"remarks":""},{"name":"North Point Marina","location":"Lake","state":"Illinois","country":"USA","imageURL":null,"remarks":""},{"name":"Peabody River State Fish and Wildlife Area","location":"Randolph","state":"Illinois","country":"USA","imageURL":null,"remarks":""},{"name":"Pekin Lake State Fish and Wildlife Area","location":"Tazewell","state":"Illinois","country":"USA","imageURL":null,"remarks":""},{"name":"Pere Marquette State Park","location":"Jersey","state":"Illinois","country":"USA","imageURL":null,"remarks":""},{"name":"Piney Creek Ravine State Natural Area","location":"Jackson, Randolph","state":"Illinois","country":"USA","imageURL":null,"remarks":""},{"name":"Powerton Lake State Fish and Wildlife Area","location":"Tazewell","state":"Illinois","country":"USA","imageURL":null,"remarks":""},{"name":"Prophetstown State Recreation Area","location":"Whiteside","state":"Illinois","country":"USA","imageURL":null,"remarks":""},{"name":"Pyramid State Recreation Area","location":"Perry","state":"Illinois","country":"USA","imageURL":null,"remarks":""},{"name":"Ramsey Lake State Recreation Area","location":"Fayette","state":"Illinois","country":"USA","imageURL":null,"remarks":""},{"name":"Randolph County State Recreation Area","location":"Randolph","state":"Illinois","country":"USA","imageURL":null,"remarks":""},{"name":"Ray Norbut State Fish and Wildlife Area","location":"Pike","state":"Illinois","country":"USA","imageURL":null,"remarks":""},{"name":"Red Hills State Park","location":"Lawrence","state":"Illinois","country":"USA","imageURL":null,"remarks":""},{"name":"Rend Lake State Fish and Wildlife Area","location":"Franklin, Jefferson","state":"Illinois","country":"USA","imageURL":null,"remarks":""},{"name":"Rice Lake State Fish and Wildlife Area","location":"Fulton","state":"Illinois","country":"USA","imageURL":null,"remarks":""},{"name":"Rock Cut State Park","location":"Winnebago","state":"Illinois","country":"USA","imageURL":null,"remarks":""},{"name":"Rock Island Trail State Park","location":"Stark, Peoria","state":"Illinois","country":"USA","imageURL":null,"remarks":"26-mile (42 km) public rail trail."},{"name":"Saline County State Fish and Wildlife Area","location":"Saline","state":"Illinois","country":"USA","imageURL":null,"remarks":""},{"name":"Sam Dale Lake State Fish and Wildlife Area","location":"Wayne","state":"Illinois","country":"USA","imageURL":null,"remarks":""},{"name":"Sam Parr State Fish and Wildlife Area","location":"Jasper","state":"Illinois","country":"USA","imageURL":null,"remarks":""},{"name":"Sand Ridge State Forest","location":"Mason","state":"Illinois","country":"USA","imageURL":null,"remarks":""},{"name":"Sanganois State Fish and Wildlife Area","location":"Cass, Schuyler, Mason","state":"Illinois","country":"USA","imageURL":null,"remarks":""},{"name":"Sangchris Lake State Recreation Area","location":"Christian, Sangamon","state":"Illinois","country":"USA","imageURL":null,"remarks":""},{"name":"Shabbona Lake State Park","location":"DeKalb","state":"Illinois","country":"USA","imageURL":null,"remarks":""},{"name":"Shelbyville State Fish and Wildlife Area","location":"Moultrie","state":"Illinois","country":"USA","imageURL":null,"remarks":""},{"name":"Sielbeck Forest Natural Area","location":"Johnson","state":"Illinois","country":"USA","imageURL":null,"remarks":""},{"name":"Siloam Springs State Park","location":"Adams, Brown","state":"Illinois","country":"USA","imageURL":null,"remarks":""},{"name":"Silver Springs State Fish & Wildlife Area","location":"Kendall","state":"Illinois","country":"USA","imageURL":null,"remarks":""},{"name":"Snakeden Hollow State Fish and Wildlife Area","location":"Knox","state":"Illinois","country":"USA","imageURL":null,"remarks":""},{"name":"South Shore State Park","location":"Clinton","state":"Illinois","country":"USA","imageURL":null,"remarks":""},{"name":"Spitler Woods State Natural Area","location":"Macon","state":"Illinois","country":"USA","imageURL":null,"remarks":""},{"name":"Spring Lake Fish and Wildlife Area","location":"Tazewell","state":"Illinois","country":"USA","imageURL":null,"remarks":""},{"name":"Starved Rock State Park","location":"LaSalle","state":"Illinois","country":"USA","imageURL":null,"remarks":""},{"name":"Stephen A. Forbes State Recreation Area","location":"Marion","state":"Illinois","country":"USA","imageURL":null,"remarks":""},{"name":"Ten Mile Creek State Fish & Wildlife Area","location":"Hamilton, Jefferson","state":"Illinois","country":"USA","imageURL":null,"remarks":""},{"name":"Trail of Tears State Forest","location":"Union","state":"Illinois","country":"USA","imageURL":null,"remarks":""},{"name":"Tunnel Hill State Trail","location":"Johnson, Pulaski, Saline, Williamson","state":"Illinois","country":"USA","imageURL":null,"remarks":"45-mile (72.4 km) Trail."},{"name":"Turkey Bluffs State Fish and Wildlife Area","location":"Randolph","state":"Illinois","country":"USA","imageURL":null,"remarks":""},{"name":"Union County State Fish and Wildlife Area","location":"Union","state":"Illinois","country":"USA","imageURL":null,"remarks":""},{"name":"Volo Bog State Natural Area","location":"Lake","state":"Illinois","country":"USA","imageURL":null,"remarks":""},{"name":"Walnut Point State Park","location":"Douglas","state":"Illinois","country":"USA","imageURL":null,"remarks":""},{"name":"Washington County State Recreation Area","location":"Washington","state":"Illinois","country":"USA","imageURL":null,"remarks":""},{"name":"Wayne Fitzgerrell State Recreation Area","location":"Franklin, Jefferson","state":"Illinois","country":"USA","imageURL":null,"remarks":""},{"name":"Weinberg-King State Park","location":"Schuyler","state":"Illinois","country":"USA","imageURL":null,"remarks":""},{"name":"Weldon Springs State Recreation Area","location":"DeWitt","state":"Illinois","country":"USA","imageURL":null,"remarks":""},{"name":"White Pines Forest State Park","location":"Ogle","state":"Illinois","country":"USA","imageURL":null,"remarks":"Southernmost stand of virgin, native white pine trees in the state of Illinois."},{"name":"William G. Stratton State Park","location":"Grundy","state":"Illinois","country":"USA","imageURL":null,"remarks":""},{"name":"William W. Powers State Recreation Area","location":"Cook","state":"Illinois","country":"USA","imageURL":null,"remarks":""},{"name":"Wolf Creek State Park","location":"Shelby","state":"Illinois","country":"USA","imageURL":null,"remarks":""},{"name":"Woodford State Fish and Wildlife Area","location":"Woodford","state":"Illinois","country":"USA","imageURL":null,"remarks":""}]