[{"name":"Brown County","location":"Brown","state":"Indiana","country":"USA","imageURL":null,"remarks":"Largest State Park in Indiana"},{"name":"Chain O' Lakes","location":"Noble","state":"Indiana","country":"USA","imageURL":null,"remarks":"Features eight connected kettle lakes"},{"name":"Charlestown","location":"Clark","state":"Indiana","country":"USA","imageURL":null,"remarks":"Built on the grounds of the old Indiana Army Ammunition Plant"},{"name":"Clifty Falls","location":"Jefferson","state":"Indiana","country":"USA","imageURL":null,"remarks":"Features a canyon that has daylight only at midday"},{"name":"Falls of the Ohio","location":"Clark","state":"Indiana","country":"USA","imageURL":null,"remarks":"Offers views of the Falls of the Ohio and Louisville, Kentucky"},{"name":"Fort Harrison","location":"Marion","state":"Indiana","country":"USA","imageURL":null,"remarks":"Built on the site of old Fort Benjamin Harrison"},{"name":"Harmonie","location":"Posey","state":"Indiana","country":"USA","imageURL":null,"remarks":"Near historic Rappite and Owenite villages."},{"name":"Indiana Dunes","location":"Porter","state":"Indiana","country":"USA","imageURL":null,"remarks":"Attached to Indiana Dunes National Park."},{"name":"Lincoln","location":"Spencer","state":"Indiana","country":"USA","imageURL":null,"remarks":"Across from Lincoln Boyhood National Memorial, it was the last state park established by Richard Lieber."},{"name":"McCormick's Creek","location":"Owen","state":"Indiana","country":"USA","imageURL":null,"remarks":"First state park in Indiana"},{"name":"Mounds","location":"Madison","state":"Indiana","country":"USA","imageURL":null,"remarks":""},{"name":"O'Bannon Woods","location":"Harrison","state":"Indiana","country":"USA","imageURL":null,"remarks":"Formerly the Wyandotte SRA, renamed in honor of the late Indiana governor Frank O'Bannon."},{"name":"Ouabache","location":"Wells","state":"Indiana","country":"USA","imageURL":null,"remarks":"Name comes from the French spelling of \"Wabash\""},{"name":"Pokagon","location":"Steuben","state":"Indiana","country":"USA","imageURL":null,"remarks":"Well known for its skiing."},{"name":"Potato Creek","location":"St. Joseph","state":"Indiana","country":"USA","imageURL":null,"remarks":""},{"name":"Prophetstown","location":"Tippecanoe","state":"Indiana","country":"USA","imageURL":null,"remarks":""},{"name":"Shades","location":"Montgomery","state":"Indiana","country":"USA","imageURL":null,"remarks":"Only state park to ever have its own airstrip."},{"name":"Shakamak","location":"Clay, Greene and Sullivan","state":"Indiana","country":"USA","imageURL":null,"remarks":"Used to be a strip mine"},{"name":"Spring Mill","location":"Lawrence","state":"Indiana","country":"USA","imageURL":null,"remarks":"Featured a pioneer village, numerous caves, and a memorial to Gus Grissom"},{"name":"Summit Lake","location":"Henry","state":"Indiana","country":"USA","imageURL":null,"remarks":""},{"name":"Tippecanoe River","location":"Pulaski","state":"Indiana","country":"USA","imageURL":null,"remarks":""},{"name":"Turkey Run","location":"Parke","state":"Indiana","country":"USA","imageURL":null,"remarks":"Famous for its sandstone gorges and unique terrain"},{"name":"Versailles","location":"Ripley","state":"Indiana","country":"USA","imageURL":null,"remarks":""},{"name":"White River","location":"Marion","state":"Indiana","country":"USA","imageURL":null,"remarks":"An urban park in downtown Indianapolis"},{"name":"Whitewater Memorial","location":"Union","state":"Indiana","country":"USA","imageURL":null,"remarks":"Built on land donated by four counties"}]