[{"name":"Ambrose A. Call State Park","location":"Kossuth County","state":"Iowa","country":"USA","imageURL":null,"remarks":"Des Moines River"},{"name":"Backbone State Park","location":"Delaware County","state":"Iowa","country":"USA","imageURL":null,"remarks":"Maquoketa River, Backbone Lake"},{"name":"Badger Creek State Recreation Area","location":"Madison County","state":"Iowa","country":"USA","imageURL":null,"remarks":"Badger Creek Lake"},{"name":"Banner Lakes at Summerset State Park","location":"Warren County","state":"Iowa","country":"USA","imageURL":null,"remarks":"Banner Lakes"},{"name":"Beed's Lake State Park","location":"Franklin County","state":"Iowa","country":"USA","imageURL":null,"remarks":"Beed's Lake"},{"name":"Bellevue State Park","location":"Jackson County","state":"Iowa","country":"USA","imageURL":null,"remarks":"Mississippi River"},{"name":"Big Creek State Park","location":"Polk County","state":"Iowa","country":"USA","imageURL":null,"remarks":"Big Creek Lake"},{"name":"Black Hawk State Park","location":"Sac County","state":"Iowa","country":"USA","imageURL":null,"remarks":"Black Hawk Lake"},{"name":"Brushy Creek State Recreation Area","location":"Webster County","state":"Iowa","country":"USA","imageURL":null,"remarks":"Des Moines River, Brushy Creek Reservoir"},{"name":"Cedar Rock State Park","location":"Buchanan County","state":"Iowa","country":"USA","imageURL":null,"remarks":"Wapsipinicon River"},{"name":"Clear Lake State Park","location":"Cerro Gordo County","state":"Iowa","country":"USA","imageURL":null,"remarks":"Clear Lake"},{"name":"Dolliver Memorial State Park","location":"Webster County","state":"Iowa","country":"USA","imageURL":null,"remarks":"Des Moines River"},{"name":"Elinor Bedell State Park","location":"Dickinson County","state":"Iowa","country":"USA","imageURL":null,"remarks":"East Okoboji Lake"},{"name":"Elk Rock State Park","location":"Marion County","state":"Iowa","country":"USA","imageURL":null,"remarks":"Lake Red Rock"},{"name":"Emerson Bay State Recreation Area","location":"Dickinson County","state":"Iowa","country":"USA","imageURL":null,"remarks":"West Okoboji Lake"},{"name":"Fairport State Recreation Area","location":"Muscatine County","state":"Iowa","country":"USA","imageURL":null,"remarks":"Mississippi River"},{"name":"Fort Atkinson State Preserve","location":"Winneshiek County","state":"Iowa","country":"USA","imageURL":null,"remarks":"None"},{"name":"Fort Defiance State Park","location":"Emmet County","state":"Iowa","country":"USA","imageURL":null,"remarks":"None"},{"name":"Geode State Park","location":"Henry County","state":"Iowa","country":"USA","imageURL":null,"remarks":"Skunk River, Lake Geode"},{"name":"George Wyth Memorial State Park","location":"Black Hawk County","state":"Iowa","country":"USA","imageURL":null,"remarks":"Cedar River and several lakes"},{"name":"Green Valley State Park","location":"Union County","state":"Iowa","country":"USA","imageURL":null,"remarks":"Green Valley Lake"},{"name":"Gull Point State Park","location":"Dickinson County","state":"Iowa","country":"USA","imageURL":null,"remarks":"West Okoboji Lake"},{"name":"Honey Creek State Park","location":"Appanoose County","state":"Iowa","country":"USA","imageURL":null,"remarks":"Rathbun Lake"},{"name":"Honey Creek Resort State Park","location":"Appanoose County","state":"Iowa","country":"USA","imageURL":null,"remarks":"Rathbun Lake"},{"name":"Lacey-Keosauqua State Park","location":"Van Buren County","state":"Iowa","country":"USA","imageURL":null,"remarks":"Des Moines River"},{"name":"Lake Ahquabi State Park","location":"Warren County","state":"Iowa","country":"USA","imageURL":null,"remarks":"Lake Ahquabi"},{"name":"Lake Anita State Park","location":"Cass County","state":"Iowa","country":"USA","imageURL":null,"remarks":"Lake Anita"},{"name":"Lake Darling State Park","location":"Washington County","state":"Iowa","country":"USA","imageURL":null,"remarks":"Lake Darling"},{"name":"Lake Keomah State Park","location":"Mahaska County","state":"Iowa","country":"USA","imageURL":null,"remarks":"Lake Keomah"},{"name":"Lake Macbride State Park","location":"Johnson County","state":"Iowa","country":"USA","imageURL":null,"remarks":"Lake Macbride, Coralville Lake"},{"name":"Lake Manawa State Park","location":"Pottawattamie County","state":"Iowa","country":"USA","imageURL":null,"remarks":"Lake Manawa"},{"name":"Lake of Three Fires State Park","location":"Taylor County","state":"Iowa","country":"USA","imageURL":null,"remarks":"Lake of Three Fires"},{"name":"Lake Wapello State Park","location":"Davis County","state":"Iowa","country":"USA","imageURL":null,"remarks":"Lake Wapello"},{"name":"Ledges State Park","location":"Boone County","state":"Iowa","country":"USA","imageURL":null,"remarks":"Des Moines River, Pea's Creek"},{"name":"Lewis and Clark State Park","location":"Monona County","state":"Iowa","country":"USA","imageURL":null,"remarks":"Blue Lake"},{"name":"Lower Gar State Recreation Area","location":"Dickinson County","state":"Iowa","country":"USA","imageURL":null,"remarks":"Lower Gar Lake"},{"name":"Maquoketa Caves State Park","location":"Jackson County","state":"Iowa","country":"USA","imageURL":null,"remarks":"Raccoon Creek"},{"name":"Marble Beach State Recreation Area","location":"Dickinson County","state":"Iowa","country":"USA","imageURL":null,"remarks":"Spirit Lake"},{"name":"McIntosh Woods State Park","location":"Cerro Gordo County","state":"Iowa","country":"USA","imageURL":null,"remarks":"Clear Lake"},{"name":"Mines of Spain State Recreation Area and E. B. Lyons Nature Center","location":"Dubuque County","state":"Iowa","country":"USA","imageURL":null,"remarks":"Mississippi River"},{"name":"Mini-Wakan State Park","location":"Dickinson County","state":"Iowa","country":"USA","imageURL":null,"remarks":"Spirit Lake"},{"name":"Nine Eagles State Park","location":"Decatur County","state":"Iowa","country":"USA","imageURL":null,"remarks":"Nine Eagles Lake"},{"name":"Okamanpedan State Park","location":"Emmet County","state":"Iowa","country":"USA","imageURL":null,"remarks":"Okamanpeedan Lake"},{"name":"Palisades-Kepler State Park","location":"Linn County","state":"Iowa","country":"USA","imageURL":null,"remarks":"Cedar River"},{"name":"Pikes Peak State Park","location":"Clayton County","state":"Iowa","country":"USA","imageURL":null,"remarks":"Mississippi River"},{"name":"Pikes Point State Park","location":"Dickinson County","state":"Iowa","country":"USA","imageURL":null,"remarks":"West Okoboji Lake"},{"name":"Pilot Knob State Park","location":"Hancock County","state":"Iowa","country":"USA","imageURL":null,"remarks":"Pilot Knob Lake, Dead Man's Lake"},{"name":"Pine Lake State Park","location":"Hardin County","state":"Iowa","country":"USA","imageURL":null,"remarks":"Iowa River, Upper and Lower Pine Lakes"},{"name":"Pleasant Creek State Recreation Area","location":"Linn County","state":"Iowa","country":"USA","imageURL":null,"remarks":"Pleasant Creek Lake"},{"name":"Prairie Rose State Park","location":"Shelby County","state":"Iowa","country":"USA","imageURL":null,"remarks":"Prairie Rose Lake"},{"name":"Preparation Canyon State Park","location":"Monona County","state":"Iowa","country":"USA","imageURL":null,"remarks":"None"},{"name":"Red Haw State Park","location":"Lucas County","state":"Iowa","country":"USA","imageURL":null,"remarks":"Red Haw Lake"},{"name":"Rice Lake State Park","location":"Winnebago County","state":"Iowa","country":"USA","imageURL":null,"remarks":"Rice Lake"},{"name":"Rock Creek State Park","location":"Jasper County","state":"Iowa","country":"USA","imageURL":null,"remarks":"Rock Creek Lake"},{"name":"Springbrook State Park","location":"Guthrie County","state":"Iowa","country":"USA","imageURL":null,"remarks":"Middle Raccoon River"},{"name":"Stone State Park","location":"Woodbury and Plymouth Counties","state":"Iowa","country":"USA","imageURL":null,"remarks":"Big Sioux River"},{"name":"Templar State Recreation Area","location":"Dickinson County","state":"Iowa","country":"USA","imageURL":null,"remarks":"Spirit Lake"},{"name":"Trapper's Bay State Park","location":"Dickinson County","state":"Iowa","country":"USA","imageURL":null,"remarks":"Silver Lake"},{"name":"Twin Lakes State Park","location":"Calhoun County","state":"Iowa","country":"USA","imageURL":null,"remarks":"North Twin Lakes"},{"name":"Union Grove State Park","location":"Tama County","state":"Iowa","country":"USA","imageURL":null,"remarks":"Union Grove Lake"},{"name":"Viking Lake State Park","location":"Montgomery County","state":"Iowa","country":"USA","imageURL":null,"remarks":"Viking Lake"},{"name":"Volga River State Recreation Area","location":"Fayette County","state":"Iowa","country":"USA","imageURL":null,"remarks":"Volga River, Frog Hollow Lake"},{"name":"Walnut Woods State Park","location":"Polk County","state":"Iowa","country":"USA","imageURL":null,"remarks":"Raccoon River"},{"name":"Wapsipinicon State Park","location":"Jones County","state":"Iowa","country":"USA","imageURL":null,"remarks":"Wapsipinicon River, Dutch Creek"},{"name":"Waubonsie State Park","location":"Fremont County","state":"Iowa","country":"USA","imageURL":null,"remarks":"Lake Virginia"},{"name":"Wildcat Den State Park","location":"Muscatine County","state":"Iowa","country":"USA","imageURL":null,"remarks":"Pine Creek"},{"name":"Wilson Island State Recreation Area","location":"Harrison County","state":"Iowa","country":"USA","imageURL":null,"remarks":"Missouri River"}]