[{"name":"Cedar Bluff State Park","location":"Trego","state":"Kansas","country":"USA","imageURL":null,"remarks":null},{"name":"Cheney State Park","location":"Kingman, Reno","state":"Kansas","country":"USA","imageURL":null,"remarks":null},{"name":"Clinton State Park","location":"Douglas","state":"Kansas","country":"USA","imageURL":null,"remarks":null},{"name":"Crawford State Park","location":"Crawford","state":"Kansas","country":"USA","imageURL":null,"remarks":null},{"name":"Cross Timbers State Park","location":"Woodson","state":"Kansas","country":"USA","imageURL":null,"remarks":null},{"name":"Eisenhower State Park","location":"Osage","state":"Kansas","country":"USA","imageURL":null,"remarks":null},{"name":"El Dorado State Park","location":"Butler","state":"Kansas","country":"USA","imageURL":null,"remarks":null},{"name":"Elk City State Park","location":"Montgomery","state":"Kansas","country":"USA","imageURL":null,"remarks":null},{"name":"Fall River State Park","location":"Greenwood","state":"Kansas","country":"USA","imageURL":null,"remarks":null},{"name":"Waconda Lake (Glen Elder Reservoir)","location":"Mitchell, Osborne","state":"Kansas","country":"USA","imageURL":null,"remarks":null},{"name":"Hillsdale State Park","location":"Miami","state":"Kansas","country":"USA","imageURL":null,"remarks":null},{"name":"Kaw River State Park","location":"Shawnee","state":"Kansas","country":"USA","imageURL":null,"remarks":null},{"name":"Kanopolis State Park","location":"Ellsworth","state":"Kansas","country":"USA","imageURL":null,"remarks":null},{"name":"Lovewell State Park","location":"Jewell","state":"Kansas","country":"USA","imageURL":null,"remarks":null},{"name":"Meade State Park","location":"Meade","state":"Kansas","country":"USA","imageURL":null,"remarks":null},{"name":"Milford Lake","location":"Geary, Clay, Dickinson","state":"Kansas","country":"USA","imageURL":null,"remarks":null},{"name":"Mushroom Rock State Park","location":"Ellsworth","state":"Kansas","country":"USA","imageURL":null,"remarks":null},{"name":"Perry State Park","location":"Jefferson","state":"Kansas","country":"USA","imageURL":null,"remarks":null},{"name":"Pomona State Park","location":"Osage","state":"Kansas","country":"USA","imageURL":null,"remarks":null},{"name":"Prairie Dog State Park","location":"Norton","state":"Kansas","country":"USA","imageURL":null,"remarks":null},{"name":"Prairie Spirit Trail State Park","location":"","state":"Kansas","country":"USA","imageURL":null,"remarks":null},{"name":"Sand Hills State Park","location":"Reno","state":"Kansas","country":"USA","imageURL":null,"remarks":null},{"name":"Lake Scott State Park","location":"Scott","state":"Kansas","country":"USA","imageURL":null,"remarks":null},{"name":"Little Jerusalem Badlands State Park","location":"Logan","state":"Kansas","country":"USA","imageURL":null,"remarks":null},{"name":"Tuttle Creek Lake","location":"Pottawatomie, Riley, Marshall","state":"Kansas","country":"USA","imageURL":null,"remarks":null},{"name":"Webster State Park","location":"Rooks","state":"Kansas","country":"USA","imageURL":null,"remarks":null},{"name":"Wilson State Park","location":"Russell","state":"Kansas","country":"USA","imageURL":null,"remarks":null}]