[{"name":"Carr Creek State Park","location":"","state":"Kentucky","country":"USA","imageURL":null,"remarks":null},{"name":"Columbus-Belmont State Park","location":"","state":"Kentucky","country":"USA","imageURL":null,"remarks":null},{"name":"Dawkins Line Rail Trail","location":"","state":"Kentucky","country":"USA","imageURL":null,"remarks":null},{"name":"E. P. \"Tom\" Sawyer State Park","location":"","state":"Kentucky","country":"USA","imageURL":null,"remarks":null},{"name":"Fishtrap Lake State Park","location":"","state":"Kentucky","country":"USA","imageURL":null,"remarks":null},{"name":"Fort Boonesborough State Park","location":"","state":"Kentucky","country":"USA","imageURL":null,"remarks":null},{"name":"General Burnside State Park","location":"","state":"Kentucky","country":"USA","imageURL":null,"remarks":null},{"name":"Grayson Lake State Park","location":"","state":"Kentucky","country":"USA","imageURL":null,"remarks":null},{"name":"Green River Lake State Park","location":"","state":"Kentucky","country":"USA","imageURL":null,"remarks":null},{"name":"John James Audubon State Park","location":"","state":"Kentucky","country":"USA","imageURL":null,"remarks":null},{"name":"Kincaid Lake State Park","location":"","state":"Kentucky","country":"USA","imageURL":null,"remarks":null},{"name":"Kingdom Come State Park","location":"","state":"Kentucky","country":"USA","imageURL":null,"remarks":null},{"name":"Lake Malone State Park","location":"","state":"Kentucky","country":"USA","imageURL":null,"remarks":null},{"name":"Levi Jackson Wilderness Road State Park","location":"","state":"Kentucky","country":"USA","imageURL":null,"remarks":null},{"name":"Lincoln Homestead State Park","location":"","state":"Kentucky","country":"USA","imageURL":null,"remarks":null},{"name":"Mineral Mound State Park","location":"","state":"Kentucky","country":"USA","imageURL":null,"remarks":null},{"name":"My Old Kentucky Home State Park","location":"","state":"Kentucky","country":"USA","imageURL":null,"remarks":null},{"name":"Nolin Lake State Park","location":"","state":"Kentucky","country":"USA","imageURL":null,"remarks":null},{"name":"Old Fort Harrod State Park","location":"","state":"Kentucky","country":"USA","imageURL":null,"remarks":null},{"name":"Paintsville Lake State Park","location":"","state":"Kentucky","country":"USA","imageURL":null,"remarks":null},{"name":"Pine Mountain State Scenic Trail","location":"","state":"Kentucky","country":"USA","imageURL":null,"remarks":null},{"name":"Taylorsville Lake State Park","location":"","state":"Kentucky","country":"USA","imageURL":null,"remarks":null},{"name":"Yatesville Lake State Park","location":"","state":"Kentucky","country":"USA","imageURL":null,"remarks":null}]