[{"name":"Allagash Wilderness Waterway","location":"Aroostook, Piscataquis","state":"Maine","country":"USA","imageURL":null,"remarks":""},{"name":"Androscoggin Riverlands","location":"Androscoggin","state":"Maine","country":"USA","imageURL":null,"remarks":""},{"name":"Aroostook State Park","location":"Aroostook","state":"Maine","country":"USA","imageURL":null,"remarks":""},{"name":"Baxter State Park","location":"Piscataquis","state":"Maine","country":"USA","imageURL":null,"remarks":""},{"name":"Birch Point State Park","location":"Knox","state":"Maine","country":"USA","imageURL":null,"remarks":""},{"name":"Bradbury Mountain State Park","location":"Cumberland","state":"Maine","country":"USA","imageURL":null,"remarks":""},{"name":"Camden Hills State Park","location":"Knox, Waldo","state":"Maine","country":"USA","imageURL":null,"remarks":""},{"name":"Cobscook Bay State Park","location":"Washington","state":"Maine","country":"USA","imageURL":null,"remarks":""},{"name":"Crescent Beach State Park","location":"Cumberland","state":"Maine","country":"USA","imageURL":null,"remarks":""},{"name":"Damariscotta Lake State Park","location":"Lincoln","state":"Maine","country":"USA","imageURL":null,"remarks":""},{"name":"Ferry Beach State Park","location":"York","state":"Maine","country":"USA","imageURL":null,"remarks":""},{"name":"Fort Point State Park","location":"Waldo","state":"Maine","country":"USA","imageURL":null,"remarks":""},{"name":"Grafton Notch State Park","location":"Oxford","state":"Maine","country":"USA","imageURL":null,"remarks":""},{"name":"Holbrook Island Sanctuary State Park","location":"Hancock","state":"Maine","country":"USA","imageURL":null,"remarks":""},{"name":"Lake St. George State Park","location":"Waldo","state":"Maine","country":"USA","imageURL":null,"remarks":""},{"name":"Lamoine State Park","location":"Hancock","state":"Maine","country":"USA","imageURL":null,"remarks":""},{"name":"Lily Bay State Park","location":"Piscataquis","state":"Maine","country":"USA","imageURL":null,"remarks":""},{"name":"Mackworth Island","location":"Cumberland","state":"Maine","country":"USA","imageURL":null,"remarks":""},{"name":"Moose Point State Park","location":"Waldo","state":"Maine","country":"USA","imageURL":null,"remarks":""},{"name":"Mount Blue State Park","location":"Franklin","state":"Maine","country":"USA","imageURL":null,"remarks":""},{"name":"Mount Kineo State Park","location":"Piscataquis","state":"Maine","country":"USA","imageURL":null,"remarks":""},{"name":"Owls Head Light State Park","location":"Knox","state":"Maine","country":"USA","imageURL":null,"remarks":""},{"name":"Peacock Beach State Park","location":"Sagadahoc","state":"Maine","country":"USA","imageURL":null,"remarks":""},{"name":"Peaks-Kenny State Park","location":"Piscataquis","state":"Maine","country":"USA","imageURL":null,"remarks":""},{"name":"Penobscot River Corridor","location":"Piscataquis, Somerset","state":"Maine","country":"USA","imageURL":null,"remarks":""},{"name":"Popham Beach State Park","location":"Sagadahoc","state":"Maine","country":"USA","imageURL":null,"remarks":""},{"name":"Quoddy Head State Park","location":"Washington","state":"Maine","country":"USA","imageURL":null,"remarks":""},{"name":"Range Ponds State Park","location":"Androscoggin","state":"Maine","country":"USA","imageURL":null,"remarks":""},{"name":"Rangeley Lake State Park","location":"Franklin","state":"Maine","country":"USA","imageURL":null,"remarks":""},{"name":"Reid State Park","location":"Sagadahoc","state":"Maine","country":"USA","imageURL":null,"remarks":""},{"name":"Roque Bluffs State Park","location":"Washington","state":"Maine","country":"USA","imageURL":null,"remarks":""},{"name":"Sebago Lake State Park","location":"Cumberland","state":"Maine","country":"USA","imageURL":null,"remarks":""},{"name":"Shackford Head State Park","location":"Washington","state":"Maine","country":"USA","imageURL":null,"remarks":""},{"name":"Swan Lake State Park","location":"Waldo","state":"Maine","country":"USA","imageURL":null,"remarks":""},{"name":"Two Lights State Park","location":"Cumberland","state":"Maine","country":"USA","imageURL":null,"remarks":""},{"name":"Vaughan Woods State Park","location":"York","state":"Maine","country":"USA","imageURL":null,"remarks":""},{"name":"Warren Island State Park","location":"Waldo","state":"Maine","country":"USA","imageURL":null,"remarks":""},{"name":"Wolfe's Neck Woods State Park","location":"Cumberland","state":"Maine","country":"USA","imageURL":null,"remarks":""}]