[{"name":"Assateague State Park","location":"Worcester","state":"Maryland","country":"USA","imageURL":null,"remarks":""},{"name":"Big Run State Park","location":"Garrett","state":"Maryland","country":"USA","imageURL":null,"remarks":""},{"name":"Bill Burton Fishing Pier State Park","location":"Dorchester, Talbot","state":"Maryland","country":"USA","imageURL":null,"remarks":""},{"name":"Bohemia River State Park","location":"Cecil","state":"Maryland","country":"USA","imageURL":null,"remarks":""},{"name":"Calvert Cliffs State Park","location":"Calvert","state":"Maryland","country":"USA","imageURL":null,"remarks":""},{"name":"Casselman River Bridge State Park","location":"Garrett","state":"Maryland","country":"USA","imageURL":null,"remarks":""},{"name":"Chapel Point State Park","location":"Charles","state":"Maryland","country":"USA","imageURL":null,"remarks":""},{"name":"Chapman State Park","location":"Charles","state":"Maryland","country":"USA","imageURL":null,"remarks":""},{"name":"Cunningham Falls State Park","location":"Frederick","state":"Maryland","country":"USA","imageURL":null,"remarks":""},{"name":"Cypress Branch State Park","location":"Kent","state":"Maryland","country":"USA","imageURL":null,"remarks":""},{"name":"Dans Mountain State Park","location":"Allegany","state":"Maryland","country":"USA","imageURL":null,"remarks":""},{"name":"Deep Creek Lake State Park","location":"Garrett","state":"Maryland","country":"USA","imageURL":null,"remarks":""},{"name":"Elk Neck State Park","location":"Cecil","state":"Maryland","country":"USA","imageURL":null,"remarks":""},{"name":"Fort Frederick State Park","location":"Washington","state":"Maryland","country":"USA","imageURL":null,"remarks":""},{"name":"Fort Tonoloway State Park","location":"Washington","state":"Maryland","country":"USA","imageURL":null,"remarks":""},{"name":"Franklin Point State Park","location":"Anne Arundel","state":"Maryland","country":"USA","imageURL":null,"remarks":""},{"name":"Gambrill State Park","location":"Frederick","state":"Maryland","country":"USA","imageURL":null,"remarks":""},{"name":"Gathland State Park","location":"Frederick, Washington","state":"Maryland","country":"USA","imageURL":null,"remarks":""},{"name":"Greenbrier State Park","location":"Frederick, Washington","state":"Maryland","country":"USA","imageURL":null,"remarks":""},{"name":"Greenwell State Park","location":"St. Mary's","state":"Maryland","country":"USA","imageURL":null,"remarks":""},{"name":"Gunpowder Falls State Park","location":"Baltimore, Harford","state":"Maryland","country":"USA","imageURL":null,"remarks":""},{"name":"Hallowing Point State Park","location":"Calvert","state":"Maryland","country":"USA","imageURL":null,"remarks":""},{"name":"Harriet Tubman Underground Railroad State Park","location":"Dorchester","state":"Maryland","country":"USA","imageURL":null,"remarks":""},{"name":"Hart-Miller Island State Park","location":"Baltimore","state":"Maryland","country":"USA","imageURL":null,"remarks":""},{"name":"Herrington Manor State Park","location":"Garrett","state":"Maryland","country":"USA","imageURL":null,"remarks":""},{"name":"Janes Island State Park","location":"Somerset","state":"Maryland","country":"USA","imageURL":null,"remarks":""},{"name":"Love Point State Park","location":"Queen Anne's","state":"Maryland","country":"USA","imageURL":null,"remarks":""},{"name":"Martinak State Park","location":"Caroline","state":"Maryland","country":"USA","imageURL":null,"remarks":""},{"name":"Matapeake State Park","location":"Queen Anne's","state":"Maryland","country":"USA","imageURL":null,"remarks":""},{"name":"Matthew Henson State Park","location":"Montgomery","state":"Maryland","country":"USA","imageURL":null,"remarks":""},{"name":"New Germany State Park","location":"Garrett","state":"Maryland","country":"USA","imageURL":null,"remarks":""},{"name":"Newtowne Neck State Park","location":"St. Mary's","state":"Maryland","country":"USA","imageURL":null,"remarks":""},{"name":"North Point State Park","location":"Baltimore","state":"Maryland","country":"USA","imageURL":null,"remarks":""},{"name":"Palmer State Park","location":"Harford","state":"Maryland","country":"USA","imageURL":null,"remarks":""},{"name":"Patapsco Valley State Park","location":"Anne Arundel, Baltimore, Carroll, Howard","state":"Maryland","country":"USA","imageURL":null,"remarks":""},{"name":"Patuxent River State Park","location":"Howard, Montgomery","state":"Maryland","country":"USA","imageURL":null,"remarks":""},{"name":"Pocomoke River State Park","location":"Worcester","state":"Maryland","country":"USA","imageURL":null,"remarks":""},{"name":"Point Lookout State Park","location":"St. Mary's","state":"Maryland","country":"USA","imageURL":null,"remarks":""},{"name":"Rocks State Park","location":"Harford","state":"Maryland","country":"USA","imageURL":null,"remarks":""},{"name":"Rocky Gap State Park","location":"Allegany","state":"Maryland","country":"USA","imageURL":null,"remarks":""},{"name":"Rosaryville State Park","location":"Prince George's","state":"Maryland","country":"USA","imageURL":null,"remarks":""},{"name":"Sandy Point State Park","location":"Anne Arundel","state":"Maryland","country":"USA","imageURL":null,"remarks":""},{"name":"Sang Run State Park","location":"Garrett","state":"Maryland","country":"USA","imageURL":null,"remarks":""},{"name":"Seneca Creek State Park","location":"Montgomery","state":"Maryland","country":"USA","imageURL":null,"remarks":""},{"name":"Smallwood State Park","location":"Charles","state":"Maryland","country":"USA","imageURL":null,"remarks":""},{"name":"South Mountain State Park","location":"Frederick, Washington","state":"Maryland","country":"USA","imageURL":null,"remarks":""},{"name":"St. Clement's Island State Park","location":"St. Mary's","state":"Maryland","country":"USA","imageURL":null,"remarks":""},{"name":"St. Mary's River State Park","location":"St. Mary's","state":"Maryland","country":"USA","imageURL":null,"remarks":""},{"name":"Susquehanna State Park","location":"Cecil, Harford","state":"Maryland","country":"USA","imageURL":null,"remarks":""},{"name":"Swallow Falls State Park","location":"Garrett","state":"Maryland","country":"USA","imageURL":null,"remarks":""},{"name":"Tuckahoe State Park","location":"Caroline, Queen Anne's","state":"Maryland","country":"USA","imageURL":null,"remarks":""},{"name":"Washington Monument State Park","location":"Frederick, Washington","state":"Maryland","country":"USA","imageURL":null,"remarks":""},{"name":"Wills Mountain State Park","location":"Allegany","state":"Maryland","country":"USA","imageURL":null,"remarks":""},{"name":"Wolf Den Run State Park","location":"Garrett","state":"Maryland","country":"USA","imageURL":null,"remarks":""},{"name":"Wye Oak State Park","location":"Talbot","state":"Maryland","country":"USA","imageURL":null,"remarks":""}]