[{"name":"Alewife Brook Reservation","location":"Middlesex.mw-parser-output .geo-default,.mw-parser-output .geo-dms,.mw-parser-output .geo-dec{display:inline}.mw-parser-output .geo-nondefault,.mw-parser-output .geo-multi-punct{display:none}.mw-parser-output .longitude,.mw-parser-output .latitude{white-space:nowrap}42°23′48″N 71°8′38″W  /  42.39667°N 71.14389°W  / 42.39667; -71.14389  (Alewife Brook Reservation)","state":"Massachusetts","country":"USA","imageURL":null,"remarks":""},{"name":"Ames Nowell State Park","location":"Plymouth42°7′12.8994″N 70°59′13.632″W  /  42.120249833°N 70.98712000°W  / 42.120249833; -70.98712000  (Ames Nowell State Park)","state":"Massachusetts","country":"USA","imageURL":null,"remarks":""},{"name":"Ashland State Park","location":"Middlesex42°14′30″N 71°27′58″W  /  42.24167°N 71.46611°W  / 42.24167; -71.46611  (Ashland State Park)","state":"Massachusetts","country":"USA","imageURL":null,"remarks":""},{"name":"Bash Bish Falls State Park","location":"Berkshire42°06′53″N 73°29′34″W  /  42.11472°N 73.49278°W  / 42.11472; -73.49278  (Bash Bish Falls State Park)","state":"Massachusetts","country":"USA","imageURL":null,"remarks":""},{"name":"Beartown State Forest","location":"Berkshire42°14′00″N 73°16′28″W  /  42.23333°N 73.27444°W  / 42.23333; -73.27444  (Beartown State Forest)","state":"Massachusetts","country":"USA","imageURL":null,"remarks":""},{"name":"Beaver Brook Reservation","location":"Middlesex42°23′26″N 71°11′52″W  /  42.39056°N 71.19778°W  / 42.39056; -71.19778  (Beaver Brook Reservation)","state":"Massachusetts","country":"USA","imageURL":null,"remarks":""},{"name":"Belle Isle Marsh Reservation","location":"Suffolk42°23′21″N 70°59′21″W  /  42.38917°N 70.98917°W  / 42.38917; -70.98917  (Belle Isle Marsh Reservation)","state":"Massachusetts","country":"USA","imageURL":null,"remarks":""},{"name":"Blackstone River and Canal Heritage State Park","location":"Worcester42°05′40″N 71°37′23″W  /  42.09444°N 71.62306°W  / 42.09444; -71.62306  (Blackstone River and Canal Heritage State Park)","state":"Massachusetts","country":"USA","imageURL":null,"remarks":""},{"name":"Blue Hills Reservation","location":"Norfolk42°12′40″N 71°7′40″W  /  42.21111°N 71.12778°W  / 42.21111; -71.12778  (Blue Hills Reservation)","state":"Massachusetts","country":"USA","imageURL":null,"remarks":""},{"name":"Borderland State Park","location":"Bristol, Norfolk42°4′3″N 71°9′13″W  /  42.06750°N 71.15361°W  / 42.06750; -71.15361  (Borderland State Park)","state":"Massachusetts","country":"USA","imageURL":null,"remarks":""},{"name":"Boston Harbor Islands State Park","location":"Norfolk, Plymouth, Suffolk42°19′11.6″N 70°55′45.6″W  /  42.319889°N 70.929333°W  / 42.319889; -70.929333  (Boston Harbor Islands State Park)","state":"Massachusetts","country":"USA","imageURL":null,"remarks":""},{"name":"Bradley Palmer State Park","location":"Essex42°38′0″N 70°53′43″W  /  42.63333°N 70.89528°W  / 42.63333; -70.89528  (Bradley Palmer State Park)","state":"Massachusetts","country":"USA","imageURL":null,"remarks":""},{"name":"Breakheart Reservation","location":"Essex, Middlesex42°29′21″N 71°2′23″W  /  42.48917°N 71.03972°W  / 42.48917; -71.03972  (Breakheart Reservation)","state":"Massachusetts","country":"USA","imageURL":null,"remarks":""},{"name":"Brimfield State Forest","location":"Hampden42°6′0″N 72°14′56″W  /  42.10000°N 72.24889°W  / 42.10000; -72.24889  (Brimfield State Forest)","state":"Massachusetts","country":"USA","imageURL":null,"remarks":""},{"name":"Bristol Blake State Reservation","location":"Norfolk42°6′28.6″N 71°19′5″W  /  42.107944°N 71.31806°W  / 42.107944; -71.31806  (Bristol Blake State Reservation)","state":"Massachusetts","country":"USA","imageURL":null,"remarks":""},{"name":"Brook Farm Historic Site","location":"Suffolk42°17′29″N 71°10′26.7″W  /  42.29139°N 71.174083°W  / 42.29139; -71.174083  (Brook Farm Historic Site)","state":"Massachusetts","country":"USA","imageURL":null,"remarks":""},{"name":"C. M. Gardner State Park","location":"Hampden42°16′31″N 72°52′14.5″W  /  42.27528°N 72.870694°W  / 42.27528; -72.870694  (C. M. Gardner State Park)","state":"Massachusetts","country":"USA","imageURL":null,"remarks":""},{"name":"Callahan State Park","location":"Middlesex42°20′35″N 71°26′55″W  /  42.34306°N 71.44861°W  / 42.34306; -71.44861  (Callahan State Park)","state":"Massachusetts","country":"USA","imageURL":null,"remarks":""},{"name":"Camp Nihan Environmental Education Camp","location":"Essex42°29′32.6″N 71°1′11.4″W  /  42.492389°N 71.019833°W  / 42.492389; -71.019833  (Camp Nihan Environmental Education Camp)","state":"Massachusetts","country":"USA","imageURL":null,"remarks":""},{"name":"Castle Island","location":"Suffolk42°20′15″N 71°0′38″W  /  42.33750°N 71.01056°W  / 42.33750; -71.01056  (Castle Island)","state":"Massachusetts","country":"USA","imageURL":null,"remarks":""},{"name":"Charles River Reservation","location":"Suffolk, Middlesex42°21′20″N 71°6′56″W  /  42.35556°N 71.11556°W  / 42.35556; -71.11556  (Charles River Reservation)","state":"Massachusetts","country":"USA","imageURL":null,"remarks":""},{"name":"Chester-Blandford State Forest","location":"Hampden42°14′58″N 72°56′58″W  /  42.24944°N 72.94944°W  / 42.24944; -72.94944  (Chester-Blandford State Forest)","state":"Massachusetts","country":"USA","imageURL":null,"remarks":""},{"name":"Chestnut Hill Reservation","location":"Suffolk42°20′7″N 71°9′29″W  /  42.33528°N 71.15806°W  / 42.33528; -71.15806  (Chestnut Hill Reservation)","state":"Massachusetts","country":"USA","imageURL":null,"remarks":""},{"name":"Chicopee Memorial State Park","location":"Hampden42°10′45″N 72°32′13″W  /  42.17917°N 72.53694°W  / 42.17917; -72.53694  (Chicopee Memorial State Park)","state":"Massachusetts","country":"USA","imageURL":null,"remarks":""},{"name":"Clarksburg State Park","location":"Berkshire42°44′5″N 73°4′35″W  /  42.73472°N 73.07639°W  / 42.73472; -73.07639  (Clarksburg State Park)","state":"Massachusetts","country":"USA","imageURL":null,"remarks":""},{"name":"Cochituate State Park","location":"Middlesex42°18′45″N 71°22′27″W  /  42.31250°N 71.37417°W  / 42.31250; -71.37417  (Cochituate State Park)","state":"Massachusetts","country":"USA","imageURL":null,"remarks":""},{"name":"Connecticut River Greenway State Park","location":"Franklin, Hampden, Hampshire42°36′27″N 72°32′30″W  /  42.60750°N 72.54167°W  / 42.60750; -72.54167  (Connecticut River Greenway State Park)","state":"Massachusetts","country":"USA","imageURL":null,"remarks":""},{"name":"Constitution Beach","location":"Suffolk42°23′5.5″N 71°0′36.2″W  /  42.384861°N 71.010056°W  / 42.384861; -71.010056  (Constitution Beach)","state":"Massachusetts","country":"USA","imageURL":null,"remarks":""},{"name":"Cutler Park Reservation","location":"Norfolk42°16′16″N 71°11′45″W  /  42.27111°N 71.19583°W  / 42.27111; -71.19583  (Cutler Park Reservation)","state":"Massachusetts","country":"USA","imageURL":null,"remarks":""},{"name":"D.A.R. State Forest","location":"Hampshire42°27′25″N 72°47′50″W  /  42.45694°N 72.79722°W  / 42.45694; -72.79722  (D.A.R. State Forest)","state":"Massachusetts","country":"USA","imageURL":null,"remarks":""},{"name":"Demarest Lloyd State Park","location":"Bristol41°31′44″N 70°59′0″W  /  41.52889°N 70.98333°W  / 41.52889; -70.98333  (Demarest Lloyd State Park)","state":"Massachusetts","country":"USA","imageURL":null,"remarks":""},{"name":"Dighton Rock State Park","location":"Bristol41°48′46″N 71°6′23″W  /  41.81278°N 71.10639°W  / 41.81278; -71.10639  (Dighton Rock State Park)","state":"Massachusetts","country":"USA","imageURL":null,"remarks":""},{"name":"Dorchester Shores Reservation","location":"Suffolk42°17′50″N 71°2′44″W  /  42.29722°N 71.04556°W  / 42.29722; -71.04556  (Dorchester Shores Reservation)","state":"Massachusetts","country":"USA","imageURL":null,"remarks":""},{"name":"Douglas State Forest","location":"Worcester42°3′30″N 71°47′13″W  /  42.05833°N 71.78694°W  / 42.05833; -71.78694  (Douglas State Forest)","state":"Massachusetts","country":"USA","imageURL":null,"remarks":""},{"name":"Dunn State Park","location":"Worcester42°34′48″N 71°58′12″W  /  42.58000°N 71.97000°W  / 42.58000; -71.97000  (Dunn State Park)","state":"Massachusetts","country":"USA","imageURL":null,"remarks":""},{"name":"Ellisville Harbor State Park","location":"Plymouth41°50′34″N 70°32′13″W  /  41.84278°N 70.53694°W  / 41.84278; -70.53694  (Ellisville Harbor State Park)","state":"Massachusetts","country":"USA","imageURL":null,"remarks":""},{"name":"Elm Bank Reservation","location":"Norfolk42°16′34″N 71°18′9″W  /  42.27611°N 71.30250°W  / 42.27611; -71.30250  (Elm Bank Reservation)","state":"Massachusetts","country":"USA","imageURL":null,"remarks":""},{"name":"Erving State Forest","location":"Franklin42°37′21″N 72°22′41″W  /  42.62250°N 72.37806°W  / 42.62250; -72.37806  (Erving State Forest)","state":"Massachusetts","country":"USA","imageURL":null,"remarks":""},{"name":"F. Gilbert Hills State Forest","location":"Norfolk42°3′28″N 71°17′0″W  /  42.05778°N 71.28333°W  / 42.05778; -71.28333  (F. Gilbert Hills State Forest)","state":"Massachusetts","country":"USA","imageURL":null,"remarks":""},{"name":"Fall River Heritage State Park","location":"Bristol41°42′20″N 71°9′38″W  /  41.70556°N 71.16056°W  / 41.70556; -71.16056  (Fall River Heritage State Park)","state":"Massachusetts","country":"USA","imageURL":null,"remarks":""},{"name":"Federated Women's Club State Forest","location":"Worcester42°29′27″N 72°15′15″W  /  42.49083°N 72.25417°W  / 42.49083; -72.25417  (Federated Women's Club State Forest)","state":"Massachusetts","country":"USA","imageURL":null,"remarks":""},{"name":"Fort Phoenix State Reservation","location":"Bristol41°37′27″N 70°53′56″W  /  41.62417°N 70.89889°W  / 41.62417; -70.89889  (Fort Phoenix State Reservation)","state":"Massachusetts","country":"USA","imageURL":null,"remarks":""},{"name":"Fort Revere Park","location":"Plymouth42°18′17″N 70°54′21″W  /  42.30472°N 70.90583°W  / 42.30472; -70.90583  (Fort Revere Park)","state":"Massachusetts","country":"USA","imageURL":null,"remarks":""},{"name":"Francis D. Martini Memorial Shell Park and Moynihan Recreation Area","location":"Suffolk42°14′36″N 71°7′37″W  /  42.24333°N 71.12694°W  / 42.24333; -71.12694  (Francis D. Martini Memorial Shell Park and Moynihan Recreation Area)","state":"Massachusetts","country":"USA","imageURL":null,"remarks":""},{"name":"Freetown-Fall River State Forest","location":"Bristol41°45′28″N 71°3′48″W  /  41.75778°N 71.06333°W  / 41.75778; -71.06333  (Freetown-Fall River State Forest)","state":"Massachusetts","country":"USA","imageURL":null,"remarks":""},{"name":"Gardner Heritage State Park","location":"Worcester42°34′38″N 71°59′39″W  /  42.57722°N 71.99417°W  / 42.57722; -71.99417  (Gardner Heritage State Park)","state":"Massachusetts","country":"USA","imageURL":null,"remarks":""},{"name":"Georgetown-Rowley State Forest","location":"Essex42°42′5″N 70°58′26″W  /  42.70139°N 70.97389°W  / 42.70139; -70.97389  (Georgetown-Rowley State Forest)","state":"Massachusetts","country":"USA","imageURL":null,"remarks":""},{"name":"Granville State Forest","location":"Hampden42°3′35″N 72°58′17″W  /  42.05972°N 72.97139°W  / 42.05972; -72.97139  (Granville State Forest)","state":"Massachusetts","country":"USA","imageURL":null,"remarks":""},{"name":"Great Brook Farm State Park","location":"Middlesex42°33′21″N 71°21′12″W  /  42.55583°N 71.35333°W  / 42.55583; -71.35333  (Great Brook Farm State Park)","state":"Massachusetts","country":"USA","imageURL":null,"remarks":""},{"name":"Greycourt State Park","location":"Essex42°43′46″N 71°10′51″W  /  42.72944°N 71.18083°W  / 42.72944; -71.18083  (Greycourt State Park)","state":"Massachusetts","country":"USA","imageURL":null,"remarks":""},{"name":"Halibut Point State Park","location":"Essex42°41′22″N 70°37′59″W  /  42.68944°N 70.63306°W  / 42.68944; -70.63306  (Halibut Point State Park)","state":"Massachusetts","country":"USA","imageURL":null,"remarks":""},{"name":"Hammond Pond Reservation","location":"Middlesex42°19′30″N 71°10′36″W  /  42.32500°N 71.17667°W  / 42.32500; -71.17667  (Hammond Pond Reservation)","state":"Massachusetts","country":"USA","imageURL":null,"remarks":""},{"name":"Hampton Ponds State Park","location":"Hampden42°10′45″N 72°41′22″W  /  42.17917°N 72.68944°W  / 42.17917; -72.68944  (Hampton Ponds State Park)","state":"Massachusetts","country":"USA","imageURL":null,"remarks":""},{"name":"Harold Parker State Forest","location":"Essex42°37′33″N 71°4′54″W  /  42.62583°N 71.08167°W  / 42.62583; -71.08167  (Harold Parker State Forest)","state":"Massachusetts","country":"USA","imageURL":null,"remarks":""},{"name":"Hemlock Gorge Reservation","location":"Middlesex42°18′52″N 71°13′35″W  /  42.31444°N 71.22639°W  / 42.31444; -71.22639  (Hemlock Gorge Reservation)","state":"Massachusetts","country":"USA","imageURL":null,"remarks":""},{"name":"Holyoke Heritage State Park","location":"Hampden42°12′18″N 72°36′26″W  /  42.20500°N 72.60722°W  / 42.20500; -72.60722  (Holyoke Heritage State Park)","state":"Massachusetts","country":"USA","imageURL":null,"remarks":""},{"name":"Hopkinton State Park","location":"Middlesex42°14′57″N 71°31′32″W  /  42.24917°N 71.52556°W  / 42.24917; -71.52556  (Hopkinton State Park)","state":"Massachusetts","country":"USA","imageURL":null,"remarks":""},{"name":"Horseneck Beach State Reservation","location":"Bristol41°30′28″N 71°2′55″W  /  41.50778°N 71.04861°W  / 41.50778; -71.04861  (Horseneck Beach State Reservation)","state":"Massachusetts","country":"USA","imageURL":null,"remarks":""},{"name":"Jug End State Reservation and Wildlife Management Area","location":"Berkshire","state":"Massachusetts","country":"USA","imageURL":null,"remarks":""},{"name":"Kenneth Dubuque Memorial State Forest","location":"Franklin","state":"Massachusetts","country":"USA","imageURL":null,"remarks":""},{"name":"Lake Dennison Recreation Area","location":"Worcester","state":"Massachusetts","country":"USA","imageURL":null,"remarks":""},{"name":"Lake Lorraine State Park","location":"Hampden","state":"Massachusetts","country":"USA","imageURL":null,"remarks":""},{"name":"Lake Wyola State Park","location":"Franklin","state":"Massachusetts","country":"USA","imageURL":null,"remarks":""},{"name":"Lawrence Heritage State Park","location":"Essex","state":"Massachusetts","country":"USA","imageURL":null,"remarks":""},{"name":"Leominster State Forest","location":"Worcester","state":"Massachusetts","country":"USA","imageURL":null,"remarks":""},{"name":"Lowell-Dracut-Tyngsboro State Forest","location":"Middlesex","state":"Massachusetts","country":"USA","imageURL":null,"remarks":""},{"name":"Lowell Heritage State Park","location":"Middlesex","state":"Massachusetts","country":"USA","imageURL":null,"remarks":""},{"name":"Lynn Heritage State Park","location":"Essex","state":"Massachusetts","country":"USA","imageURL":null,"remarks":""},{"name":"Lynn Shore Reservation","location":"Essex","state":"Massachusetts","country":"USA","imageURL":null,"remarks":""},{"name":"Manuel F. Correllus State Forest","location":"Dukes","state":"Massachusetts","country":"USA","imageURL":null,"remarks":""},{"name":"Massasoit State Park","location":"Bristol","state":"Massachusetts","country":"USA","imageURL":null,"remarks":""},{"name":"Maudslay State Park","location":"Essex","state":"Massachusetts","country":"USA","imageURL":null,"remarks":""},{"name":"Middlesex Fells Reservation","location":"Middlesex","state":"Massachusetts","country":"USA","imageURL":null,"remarks":""},{"name":"Mohawk Trail State Forest","location":"Franklin","state":"Massachusetts","country":"USA","imageURL":null,"remarks":""},{"name":"Monroe State Forest","location":"Franklin","state":"Massachusetts","country":"USA","imageURL":null,"remarks":""},{"name":"Moore State Park","location":"Worcester","state":"Massachusetts","country":"USA","imageURL":null,"remarks":""},{"name":"Mount Everett State Reservation","location":"Berkshire","state":"Massachusetts","country":"USA","imageURL":null,"remarks":""},{"name":"Mount Grace State Forest","location":"Franklin","state":"Massachusetts","country":"USA","imageURL":null,"remarks":""},{"name":"Mount Greylock State Reservation","location":"Berkshire","state":"Massachusetts","country":"USA","imageURL":null,"remarks":""},{"name":"Mount Holyoke Range State Park","location":"Hampshire","state":"Massachusetts","country":"USA","imageURL":null,"remarks":""},{"name":"Mount Sugarloaf State Reservation","location":"Franklin","state":"Massachusetts","country":"USA","imageURL":null,"remarks":""},{"name":"Mount Tom State Reservation","location":"Hampden","state":"Massachusetts","country":"USA","imageURL":null,"remarks":""},{"name":"Mount Washington State Forest","location":"Berkshire","state":"Massachusetts","country":"USA","imageURL":null,"remarks":""},{"name":"Myles Standish Monument State Reservation","location":"Plymouth","state":"Massachusetts","country":"USA","imageURL":null,"remarks":""},{"name":"Myles Standish State Forest","location":"Plymouth","state":"Massachusetts","country":"USA","imageURL":null,"remarks":""},{"name":"Mystic River Reservation","location":"Middlesex","state":"Massachusetts","country":"USA","imageURL":null,"remarks":""},{"name":"Nahant Beach Reservation","location":"Essex","state":"Massachusetts","country":"USA","imageURL":null,"remarks":""},{"name":"Nantasket Beach Reservation","location":"Plymouth","state":"Massachusetts","country":"USA","imageURL":null,"remarks":""},{"name":"Nasketucket Bay State Reservation","location":"Plymouth","state":"Massachusetts","country":"USA","imageURL":null,"remarks":""},{"name":"Natural Bridge State Park","location":"Berkshire","state":"Massachusetts","country":"USA","imageURL":null,"remarks":""},{"name":"Neponset River Reservation","location":"Suffolk","state":"Massachusetts","country":"USA","imageURL":null,"remarks":""},{"name":"Nickerson State Park","location":"Barnstable","state":"Massachusetts","country":"USA","imageURL":null,"remarks":""},{"name":"October Mountain State Forest","location":"Berkshire","state":"Massachusetts","country":"USA","imageURL":null,"remarks":""},{"name":"Otter River State Forest","location":"Worcester","state":"Massachusetts","country":"USA","imageURL":null,"remarks":""},{"name":"Pearl Hill State Park","location":"Middlesex","state":"Massachusetts","country":"USA","imageURL":null,"remarks":""},{"name":"Pilgrim Memorial State Park","location":"Plymouth","state":"Massachusetts","country":"USA","imageURL":null,"remarks":""},{"name":"Pittsfield State Forest","location":"Berkshire","state":"Massachusetts","country":"USA","imageURL":null,"remarks":""},{"name":"Pope John Paul II Park Reservation","location":"Suffolk","state":"Massachusetts","country":"USA","imageURL":null,"remarks":""},{"name":"Purgatory Chasm State Reservation","location":"Worcester","state":"Massachusetts","country":"USA","imageURL":null,"remarks":""},{"name":"Quabbin Reservoir","location":"Hampshire","state":"Massachusetts","country":"USA","imageURL":null,"remarks":""},{"name":"Quincy Quarries Reservation","location":"Norfolk","state":"Massachusetts","country":"USA","imageURL":null,"remarks":""},{"name":"Quincy Shores Reservation","location":"Norfolk","state":"Massachusetts","country":"USA","imageURL":null,"remarks":""},{"name":"Quinsigamond State Park","location":"Worcester","state":"Massachusetts","country":"USA","imageURL":null,"remarks":""},{"name":"Revere Beach Reservation","location":"Suffolk","state":"Massachusetts","country":"USA","imageURL":null,"remarks":""},{"name":"Robinson State Park","location":"Hampden","state":"Massachusetts","country":"USA","imageURL":null,"remarks":""},{"name":"Roxbury Heritage State Park","location":"Suffolk","state":"Massachusetts","country":"USA","imageURL":null,"remarks":""},{"name":"Rumney Marsh Reservation","location":"Essex, Suffolk","state":"Massachusetts","country":"USA","imageURL":null,"remarks":""},{"name":"Rutland State Park","location":"Worcester","state":"Massachusetts","country":"USA","imageURL":null,"remarks":""},{"name":"Salisbury Beach State Reservation","location":"Essex","state":"Massachusetts","country":"USA","imageURL":null,"remarks":""},{"name":"Sandisfield State Forest","location":"Berkshire","state":"Massachusetts","country":"USA","imageURL":null,"remarks":""},{"name":"Sandy Point State Reservation","location":"Essex","state":"Massachusetts","country":"USA","imageURL":null,"remarks":""},{"name":"Savoy Mountain State Forest","location":"Berkshire","state":"Massachusetts","country":"USA","imageURL":null,"remarks":""},{"name":"Scusset Beach State Reservation","location":"Barnstable","state":"Massachusetts","country":"USA","imageURL":null,"remarks":""},{"name":"Shawme-Crowell State Forest","location":"Barnstable","state":"Massachusetts","country":"USA","imageURL":null,"remarks":""},{"name":"J.A. Skinner State Park","location":"Hampshire","state":"Massachusetts","country":"USA","imageURL":null,"remarks":""},{"name":"South Cape Beach State Park","location":"Barnstable","state":"Massachusetts","country":"USA","imageURL":null,"remarks":""},{"name":"Southwest Corridor Park","location":"Suffolk","state":"Massachusetts","country":"USA","imageURL":null,"remarks":""},{"name":"Spencer State Forest","location":"Worcester","state":"Massachusetts","country":"USA","imageURL":null,"remarks":""},{"name":"Squantum Point Park","location":"Norfolk","state":"Massachusetts","country":"USA","imageURL":null,"remarks":""},{"name":"Stony Brook Reservation","location":"Suffolk","state":"Massachusetts","country":"USA","imageURL":null,"remarks":""},{"name":"Streeter Point Recreation Area","location":"Worcester","state":"Massachusetts","country":"USA","imageURL":null,"remarks":""},{"name":"Sudbury Reservoir","location":"Middlesex; Worcester","state":"Massachusetts","country":"USA","imageURL":null,"remarks":""},{"name":"Tolland State Forest","location":"Berkshire","state":"Massachusetts","country":"USA","imageURL":null,"remarks":""},{"name":"Upper Charles River Reservation","location":"Middlesex, Norfolk, Suffolk","state":"Massachusetts","country":"USA","imageURL":null,"remarks":""},{"name":"Upton State Forest","location":"Worcester","state":"Massachusetts","country":"USA","imageURL":null,"remarks":""},{"name":"Wachusett Mountain State Reservation","location":"Worcester","state":"Massachusetts","country":"USA","imageURL":null,"remarks":""},{"name":"Wachusett Reservoir","location":"Worcester","state":"Massachusetts","country":"USA","imageURL":null,"remarks":""},{"name":"Wahconah Falls State Park","location":"Berkshire","state":"Massachusetts","country":"USA","imageURL":null,"remarks":""},{"name":"Walden Pond State Reservation","location":"Middlesex","state":"Massachusetts","country":"USA","imageURL":null,"remarks":""},{"name":"Waquoit Bay National Estuarine Research Reserve","location":"Barnstable","state":"Massachusetts","country":"USA","imageURL":null,"remarks":""},{"name":"Ware River Watershed Area","location":"Worcester","state":"Massachusetts","country":"USA","imageURL":null,"remarks":""},{"name":"Watson Pond State Park","location":"Bristol","state":"Massachusetts","country":"USA","imageURL":null,"remarks":""},{"name":"Webb Memorial State Park","location":"Norfolk","state":"Massachusetts","country":"USA","imageURL":null,"remarks":""},{"name":"Wells State Park","location":"Worcester","state":"Massachusetts","country":"USA","imageURL":null,"remarks":""},{"name":"Wendell State Forest","location":"Franklin","state":"Massachusetts","country":"USA","imageURL":null,"remarks":""},{"name":"Western Gateway Heritage State Park","location":"Berkshire","state":"Massachusetts","country":"USA","imageURL":null,"remarks":""},{"name":"Weymouth Back River Reservation","location":"Norfolk","state":"Massachusetts","country":"USA","imageURL":null,"remarks":""},{"name":"Whitehall State Park","location":"Middlesex","state":"Massachusetts","country":"USA","imageURL":null,"remarks":""},{"name":"Willard Brook State Forest","location":"Middlesex","state":"Massachusetts","country":"USA","imageURL":null,"remarks":""},{"name":"Willowdale State Forest","location":"Essex","state":"Massachusetts","country":"USA","imageURL":null,"remarks":""},{"name":"Wilson Mountain Reservation","location":"Norfolk","state":"Massachusetts","country":"USA","imageURL":null,"remarks":""},{"name":"Windsor State Forest","location":"Berkshire","state":"Massachusetts","country":"USA","imageURL":null,"remarks":""},{"name":"Winthrop Shore Reservation","location":"Suffolk","state":"Massachusetts","country":"USA","imageURL":null,"remarks":""},{"name":"Wompatuck State Park","location":"Plymouth","state":"Massachusetts","country":"USA","imageURL":null,"remarks":""}]