[{"name":"Algonac State Park","location":"St. Clair","state":"Michigan","country":"USA","imageURL":null,"remarks":""},{"name":"Aloha State Park","location":"Cheboygan","state":"Michigan","country":"USA","imageURL":null,"remarks":""},{"name":"Baraga State Park","location":"Baraga","state":"Michigan","country":"USA","imageURL":null,"remarks":""},{"name":"Bay City State Park","location":"Bay","state":"Michigan","country":"USA","imageURL":null,"remarks":""},{"name":"Belle Isle Park","location":"Wayne","state":"Michigan","country":"USA","imageURL":null,"remarks":""},{"name":"Bewabic State Park","location":"Iron","state":"Michigan","country":"USA","imageURL":null,"remarks":""},{"name":"Brimley State Park","location":"Chippewa","state":"Michigan","country":"USA","imageURL":null,"remarks":""},{"name":"Burt Lake State Park","location":"Cheboygan","state":"Michigan","country":"USA","imageURL":null,"remarks":""},{"name":"Cambridge Junction Historic State Park","location":"Lenawee","state":"Michigan","country":"USA","imageURL":null,"remarks":""},{"name":"Cheboygan State Park","location":"Cheboygan","state":"Michigan","country":"USA","imageURL":null,"remarks":""},{"name":"Clear Lake State Park","location":"Montmorency","state":"Michigan","country":"USA","imageURL":null,"remarks":""},{"name":"Coldwater Lake State Park","location":"Branch","state":"Michigan","country":"USA","imageURL":null,"remarks":""},{"name":"Craig Lake State Park","location":"Baraga","state":"Michigan","country":"USA","imageURL":null,"remarks":""},{"name":"Dodge #4 State Park","location":"Oakland","state":"Michigan","country":"USA","imageURL":null,"remarks":""},{"name":"Duck Lake State Park","location":"Muskegon","state":"Michigan","country":"USA","imageURL":null,"remarks":""},{"name":"Fayette Historic State Park","location":"Delta","state":"Michigan","country":"USA","imageURL":null,"remarks":""},{"name":"Fisherman's Island State Park","location":"Charlevoix","state":"Michigan","country":"USA","imageURL":null,"remarks":""},{"name":"Fort Wilkins Historic State Park","location":"Keweenaw","state":"Michigan","country":"USA","imageURL":null,"remarks":""},{"name":"Grand Haven State Park","location":"Ottawa","state":"Michigan","country":"USA","imageURL":null,"remarks":""},{"name":"Grand Mere State Park","location":"Berrien","state":"Michigan","country":"USA","imageURL":null,"remarks":""},{"name":"Harrisville State Park","location":"Alcona","state":"Michigan","country":"USA","imageURL":null,"remarks":""},{"name":"Hartwick Pines State Park","location":"Crawford","state":"Michigan","country":"USA","imageURL":null,"remarks":""},{"name":"Hayes State Park","location":"Lenawee, Jackson, Washtenaw","state":"Michigan","country":"USA","imageURL":null,"remarks":""},{"name":"Historic Mill Creek State Park","location":"Cheboygan","state":"Michigan","country":"USA","imageURL":null,"remarks":""},{"name":"Hoeft State Park","location":"Presque Isle","state":"Michigan","country":"USA","imageURL":null,"remarks":""},{"name":"Hoffmaster State Park","location":"Muskegon, Ottawa","state":"Michigan","country":"USA","imageURL":null,"remarks":""},{"name":"Holland State Park","location":"Ottawa","state":"Michigan","country":"USA","imageURL":null,"remarks":""},{"name":"Indian Lake State Park","location":"Schoolcraft","state":"Michigan","country":"USA","imageURL":null,"remarks":""},{"name":"Interlochen State Park","location":"Grand Traverse","state":"Michigan","country":"USA","imageURL":null,"remarks":""},{"name":"Keith J. Charters Traverse City State Park","location":"Grand Traverse","state":"Michigan","country":"USA","imageURL":null,"remarks":""},{"name":"Lake Gogebic State Park","location":"Gogebic","state":"Michigan","country":"USA","imageURL":null,"remarks":""},{"name":"Lakeport State Park","location":"St. Clair","state":"Michigan","country":"USA","imageURL":null,"remarks":""},{"name":"Laughing Whitefish Falls State Park","location":"Alger","state":"Michigan","country":"USA","imageURL":null,"remarks":""},{"name":"Leelanau State Park","location":"Leelanau","state":"Michigan","country":"USA","imageURL":null,"remarks":""},{"name":"Ludington State Park","location":"Mason","state":"Michigan","country":"USA","imageURL":null,"remarks":""},{"name":"Mackinac Island State Park","location":"Mackinac","state":"Michigan","country":"USA","imageURL":null,"remarks":""},{"name":"Maybury State Park","location":"Wayne","state":"Michigan","country":"USA","imageURL":null,"remarks":""},{"name":"McLain State Park","location":"Houghton","state":"Michigan","country":"USA","imageURL":null,"remarks":""},{"name":"Mears State Park","location":"Oceana","state":"Michigan","country":"USA","imageURL":null,"remarks":""},{"name":"Meridian-Baseline State Park","location":"Ingham, Jackson","state":"Michigan","country":"USA","imageURL":null,"remarks":""},{"name":"Michilimackinac State Park","location":"Emmet, Cheboygan","state":"Michigan","country":"USA","imageURL":null,"remarks":""},{"name":"Mitchell State Park","location":"Wexford","state":"Michigan","country":"USA","imageURL":null,"remarks":""},{"name":"Muskallonge Lake State Park","location":"Luce","state":"Michigan","country":"USA","imageURL":null,"remarks":""},{"name":"Muskegon State Park","location":"Muskegon","state":"Michigan","country":"USA","imageURL":null,"remarks":""},{"name":"Negwegon State Park","location":"Alcona, Alpena","state":"Michigan","country":"USA","imageURL":null,"remarks":""},{"name":"Newaygo State Park","location":"Newaygo","state":"Michigan","country":"USA","imageURL":null,"remarks":""},{"name":"North Higgins Lake State Park","location":"Crawford","state":"Michigan","country":"USA","imageURL":null,"remarks":""},{"name":"Old Mission State Park","location":"Grand Traverse","state":"Michigan","country":"USA","imageURL":null,"remarks":""},{"name":"Onaway State Park","location":"Presque Isle","state":"Michigan","country":"USA","imageURL":null,"remarks":""},{"name":"Orchard Beach State Park","location":"Manistee","state":"Michigan","country":"USA","imageURL":null,"remarks":""},{"name":"Otsego Lake State Park","location":"Otsego","state":"Michigan","country":"USA","imageURL":null,"remarks":""},{"name":"Palms Book State Park","location":"Schoolcraft","state":"Michigan","country":"USA","imageURL":null,"remarks":""},{"name":"Petoskey State Park","location":"Emmet","state":"Michigan","country":"USA","imageURL":null,"remarks":""},{"name":"Porcupine Mountains Wilderness State Park","location":"Gogebic, Ontonagon","state":"Michigan","country":"USA","imageURL":null,"remarks":""},{"name":"Port Crescent State Park","location":"Huron","state":"Michigan","country":"USA","imageURL":null,"remarks":""},{"name":"Sanilac Petroglyphs Historic State Park","location":"Sanilac","state":"Michigan","country":"USA","imageURL":null,"remarks":""},{"name":"Saugatuck Dunes State Park","location":"Allegan","state":"Michigan","country":"USA","imageURL":null,"remarks":""},{"name":"Seven Lakes State Park","location":"Oakland","state":"Michigan","country":"USA","imageURL":null,"remarks":""},{"name":"Silver Lake State Park","location":"Oceana","state":"Michigan","country":"USA","imageURL":null,"remarks":""},{"name":"Sleeper State Park","location":"Huron","state":"Michigan","country":"USA","imageURL":null,"remarks":""},{"name":"Sleepy Hollow State Park","location":"Clinton","state":"Michigan","country":"USA","imageURL":null,"remarks":""},{"name":"South Higgins Lake State Park","location":"Roscommon","state":"Michigan","country":"USA","imageURL":null,"remarks":""},{"name":"Sterling State Park","location":"Monroe","state":"Michigan","country":"USA","imageURL":null,"remarks":""},{"name":"Straits State Park","location":"Mackinac","state":"Michigan","country":"USA","imageURL":null,"remarks":""},{"name":"Sturgeon Point State Park","location":"Alcona","state":"Michigan","country":"USA","imageURL":null,"remarks":""},{"name":"Tahquamenon Falls State Park","location":"Chippewa, Luce","state":"Michigan","country":"USA","imageURL":null,"remarks":""},{"name":"Tawas Point State Park","location":"Iosco","state":"Michigan","country":"USA","imageURL":null,"remarks":""},{"name":"Thompson's Harbor State Park","location":"Presque Isle","state":"Michigan","country":"USA","imageURL":null,"remarks":""},{"name":"Twin Lakes State Park","location":"Houghton","state":"Michigan","country":"USA","imageURL":null,"remarks":""},{"name":"Van Buren State Park","location":"Van Buren","state":"Michigan","country":"USA","imageURL":null,"remarks":""},{"name":"Van Riper State Park","location":"Marquette","state":"Michigan","country":"USA","imageURL":null,"remarks":""},{"name":"Warren Dunes State Park","location":"Berrien","state":"Michigan","country":"USA","imageURL":null,"remarks":""},{"name":"Warren Woods State Park","location":"Berrien","state":"Michigan","country":"USA","imageURL":null,"remarks":""},{"name":"Watkins Lake State Park and County Preserve","location":"Washtenaw","state":"Michigan","country":"USA","imageURL":null,"remarks":""},{"name":"Wells State Park","location":"Menominee","state":"Michigan","country":"USA","imageURL":null,"remarks":""},{"name":"Wilderness State Park","location":"Emmet","state":"Michigan","country":"USA","imageURL":null,"remarks":""},{"name":"William G. Milliken State Park and Harbor","location":"Wayne","state":"Michigan","country":"USA","imageURL":null,"remarks":""},{"name":"Wilson State Park","location":"Clare","state":"Michigan","country":"USA","imageURL":null,"remarks":""},{"name":"Young State Park","location":"Charlevoix","state":"Michigan","country":"USA","imageURL":null,"remarks":""}]