[{"name":"Afton State Park","location":"Washington","state":"Minnesota","country":"USA","imageURL":null,"remarks":".mw-parser-output .geo-default,.mw-parser-output .geo-dms,.mw-parser-output .geo-dec{display:inline}.mw-parser-output .geo-nondefault,.mw-parser-output .geo-multi-punct{display:none}.mw-parser-output .longitude,.mw-parser-output .latitude{white-space:nowrap}44°51′45″N 92°47′01″W  /  44.8624675°N 92.7835367°W  / 44.8624675; -92.7835367  (Afton State Park)"},{"name":"Banning State Park","location":"Pine","state":"Minnesota","country":"USA","imageURL":null,"remarks":"46°10′15″N 92°50′39″W  /  46.1707812°N 92.8440889°W  / 46.1707812; -92.8440889  (Banning State Park)"},{"name":"Bear Head Lake State Park","location":"St. Louis","state":"Minnesota","country":"USA","imageURL":null,"remarks":"47°47′47″N 92°04′37″W  /  47.7963051°N 92.0768231°W  / 47.7963051; -92.0768231  (Bear Head Lake State Park)"},{"name":"Beaver Creek Valley State Park","location":"Houston","state":"Minnesota","country":"USA","imageURL":null,"remarks":"43°38′34″N 91°34′55″W  /  43.6427458°N 91.5818101°W  / 43.6427458; -91.5818101  (Beaver Creek Valley State Park)"},{"name":"Big Bog State Recreation Area","location":"Beltrami","state":"Minnesota","country":"USA","imageURL":null,"remarks":"48°10′22″N 94°30′43″W  /  48.172761°N 94.512033°W  / 48.172761; -94.512033  (Big Bog State Recreation Area)"},{"name":"Big Stone Lake State Park","location":"Big Stone","state":"Minnesota","country":"USA","imageURL":null,"remarks":"45°22′57″N 96°30′47″W  /  45.3824644°N 96.5131148°W  / 45.3824644; -96.5131148  (Big Stone Lake State Park)"},{"name":"Blue Mounds State Park","location":"Rock","state":"Minnesota","country":"USA","imageURL":null,"remarks":"43°42′25″N 96°11′13″W  /  43.7069134°N 96.1869728°W  / 43.7069134; -96.1869728  (Blue Mounds State Park)"},{"name":"Buffalo River State Park","location":"Clay","state":"Minnesota","country":"USA","imageURL":null,"remarks":"46°51′56″N 96°28′04″W  /  46.8655165°N 96.4678474°W  / 46.8655165; -96.4678474  (Buffalo River State Park)"},{"name":"Camden State Park","location":"Lyon","state":"Minnesota","country":"USA","imageURL":null,"remarks":"44°21′45″N 95°55′30″W  /  44.362462°N 95.9250247°W  / 44.362462; -95.9250247  (Camden State Park)"},{"name":"Carley State Park","location":"Wabasha","state":"Minnesota","country":"USA","imageURL":null,"remarks":"44°07′00″N 92°10′34″W  /  44.1166318°N 92.1760002°W  / 44.1166318; -92.1760002  (Carley State Park)"},{"name":"Cascade River State Park","location":"Cook","state":"Minnesota","country":"USA","imageURL":null,"remarks":"47°42′35″N 90°31′20″W  /  47.7097222°N 90.5222222°W  / 47.7097222; -90.5222222  (Cascade River State Park Recreation Site)"},{"name":"Charles A. Lindbergh State Park","location":"Morrison","state":"Minnesota","country":"USA","imageURL":null,"remarks":"45°57′32″N 94°23′43″W  /  45.9588545°N 94.3952813°W  / 45.9588545; -94.3952813  (Charles A Lindbergh State Park)"},{"name":"Crow Wing State Park","location":"Crow Wing, Cass, and Morrison","state":"Minnesota","country":"USA","imageURL":null,"remarks":"46°16′20″N 94°20′00″W  /  46.2722222°N 94.3333333°W  / 46.2722222; -94.3333333  (Crow Wing State Park)"},{"name":"Cuyuna Country State Recreation Area","location":"Crow Wing","state":"Minnesota","country":"USA","imageURL":null,"remarks":"46°29′22″N 93°58′39″W  /  46.489550°N 93.977500°W  / 46.489550; -93.977500  (Cuyuna Country State Recreation Area)"},{"name":"Father Hennepin State Park","location":"Mille Lacs","state":"Minnesota","country":"USA","imageURL":null,"remarks":"46°08′41″N 93°29′17″W  /  46.1446779°N 93.4880157°W  / 46.1446779; -93.4880157  (Father Hennepin State Park)"},{"name":"Flandrau State Park","location":"Brown","state":"Minnesota","country":"USA","imageURL":null,"remarks":"44°17′18″N 94°28′25″W  /  44.2882956°N 94.4735837°W  / 44.2882956; -94.4735837  (Flandrau State Park)"},{"name":"Forestville/Mystery Cave State Park","location":"Fillmore","state":"Minnesota","country":"USA","imageURL":null,"remarks":"43°37′32″N 92°14′51″W  /  43.6255204°N 92.247388°W  / 43.6255204; -92.247388  (Forestville Mystery Cave State Park)"},{"name":"Fort Ridgely State Park","location":"Nicollet and Renville","state":"Minnesota","country":"USA","imageURL":null,"remarks":"44°27′09″N 94°43′51″W  /  44.4524621°N 94.7308199°W  / 44.4524621; -94.7308199  (Fort Ridgely State Park)"},{"name":"Fort Snelling State Park","location":"Ramsey, Hennepin, and Dakota","state":"Minnesota","country":"USA","imageURL":null,"remarks":"44°53′09″N 93°10′41″W  /  44.8857988°N 93.1779985°W  / 44.8857988; -93.1779985  (Fort Snelling State Park)"},{"name":"Franz Jevne State Park","location":"Koochiching","state":"Minnesota","country":"USA","imageURL":null,"remarks":"48°38′32″N 94°04′49″W  /  48.642240°N 94.080410°W  / 48.642240; -94.080410  (Franz Jevne State Park)"},{"name":"Frontenac State Park","location":"Goodhue","state":"Minnesota","country":"USA","imageURL":null,"remarks":"44°30′27″N 92°19′35″W  /  44.5074677°N 92.3262914°W  / 44.5074677; -92.3262914  (Frontenac State Park)"},{"name":"Garden Island State Recreation Area","location":"Lake of the Woods","state":"Minnesota","country":"USA","imageURL":null,"remarks":"49°10′31″N 94°50′05″W  /  49.175335°N 94.834671°W  / 49.175335; -94.834671  (Garden Island State Recreation Area)"},{"name":"George H. Crosby Manitou State Park","location":"Lake","state":"Minnesota","country":"USA","imageURL":null,"remarks":"47°30′22″N 91°06′33″W  /  47.506018°N 91.109045°W  / 47.506018; -91.109045  (George H Crosby Manitou State Park)"},{"name":"Glacial Lakes State Park","location":"Pope","state":"Minnesota","country":"USA","imageURL":null,"remarks":"45°32′15″N 95°31′19″W  /  45.537461°N 95.521983°W  / 45.537461; -95.521983  (Glacial Lakes State Park)"},{"name":"Glendalough State Park","location":"Otter Tail","state":"Minnesota","country":"USA","imageURL":null,"remarks":"46°20′00″N 95°40′00″W  /  46.3333333°N 95.6666667°W  / 46.3333333; -95.6666667  (Glendalough State Park)"},{"name":"Gooseberry Falls State Park","location":"Lake","state":"Minnesota","country":"USA","imageURL":null,"remarks":"47°08′49″N 91°27′48″W  /  47.1468715°N 91.4632289°W  / 47.1468715; -91.4632289  (Gooseberry Falls State Park)"},{"name":"Grand Portage State Park","location":"Cook","state":"Minnesota","country":"USA","imageURL":null,"remarks":"48°00′37″N 89°36′43″W  /  48.0101633°N 89.6120317°W  / 48.0101633; -89.6120317  (Grand Portage State Park)"},{"name":"Great River Bluffs State Park","location":"Winona","state":"Minnesota","country":"USA","imageURL":null,"remarks":"43°56′47″N 91°23′58″W  /  43.9463526°N 91.3993094°W  / 43.9463526; -91.3993094  (Great River Bluffs State Park)"},{"name":"Greenleaf Lake State Recreation Area","location":"Meeker","state":"Minnesota","country":"USA","imageURL":null,"remarks":"45°00′57″N 94°28′00″W  /  45.01591°N 94.46671°W  / 45.01591; -94.46671  (Greenleaf Lake State Recreation Area)"},{"name":"Hayes Lake State Park","location":"Roseau","state":"Minnesota","country":"USA","imageURL":null,"remarks":"48°37′24″N 95°30′28″W  /  48.623309°N 95.507753°W  / 48.623309; -95.507753  (Hayes Lake State Park)"},{"name":"Hill-Annex Mine State Park","location":"Itasca","state":"Minnesota","country":"USA","imageURL":null,"remarks":"47°19′39″N 93°16′39″W  /  47.327490°N 93.277520°W  / 47.327490; -93.277520  (Hill-Annex Mine State Park)"},{"name":"Interstate State Park","location":"Chisago","state":"Minnesota","country":"USA","imageURL":null,"remarks":"45°23′42″N 92°40′11″W  /  45.3949622°N 92.6696521°W  / 45.3949622; -92.6696521  (Interstate State Park)"},{"name":"Iron Range Off-Highway Vehicle State Recreation Area","location":"St. Louis","state":"Minnesota","country":"USA","imageURL":null,"remarks":"47°28′57″N 92°26′37″W  /  47.48247°N 92.44349°W  / 47.48247; -92.44349  (Iron Range Off-Highway Vehicle State Recreation Area)"},{"name":"Itasca State Park","location":"Hubbard, Clearwater, and Becker","state":"Minnesota","country":"USA","imageURL":null,"remarks":"47°11′51″N 95°12′07″W  /  47.1974579°N 95.2019642°W  / 47.1974579; -95.2019642  (Itasca State Park)"},{"name":"Jay Cooke State Park","location":"Carlton","state":"Minnesota","country":"USA","imageURL":null,"remarks":"46°38′59″N 92°19′51″W  /  46.6496646°N 92.330748°W  / 46.6496646; -92.330748  (Jay Cooke State Park)"},{"name":"John A. Latsch State Park","location":"Winona","state":"Minnesota","country":"USA","imageURL":null,"remarks":"44°09′43″N 91°49′20″W  /  44.1619082°N 91.8220997°W  / 44.1619082; -91.8220997  (John Latsch State Park)"},{"name":"Judge C. R. Magney State Park","location":"Cook","state":"Minnesota","country":"USA","imageURL":null,"remarks":"47°51′05″N 90°03′30″W  /  47.8512799°N 90.0584299°W  / 47.8512799; -90.0584299  (Judge C R Magney State Park)"},{"name":"Kilen Woods State Park","location":"Jackson","state":"Minnesota","country":"USA","imageURL":null,"remarks":"43°43′36″N 95°03′47″W  /  43.7266244°N 95.0630473°W  / 43.7266244; -95.0630473  (Kilen Woods State Park)"},{"name":"La Salle Lake State Recreation Area","location":"Hubbard","state":"Minnesota","country":"USA","imageURL":null,"remarks":"47°20′14″N 95°10′14″W  /  47.33719°N 95.17061°W  / 47.33719; -95.17061  (La Salle Lake State Recreation Area)"},{"name":"Lac qui Parle State Park","location":"Lac qui Parle and Chippewa","state":"Minnesota","country":"USA","imageURL":null,"remarks":"45°01′14″N 95°53′20″W  /  45.0205141°N 95.888921°W  / 45.0205141; -95.888921  (Lac qui Parle State Park)"},{"name":"Lake Bemidji State Park","location":"Beltrami","state":"Minnesota","country":"USA","imageURL":null,"remarks":"47°32′11″N 94°49′22″W  /  47.5363413°N 94.8227704°W  / 47.5363413; -94.8227704  (Lake Bemidji State Park)"},{"name":"Lake Bronson State Park","location":"Kittson","state":"Minnesota","country":"USA","imageURL":null,"remarks":"48°43′29″N 96°36′12″W  /  48.7247004°N 96.6033741°W  / 48.7247004; -96.6033741  (Lake Bronson State Park)"},{"name":"Lake Carlos State Park","location":"Douglas","state":"Minnesota","country":"USA","imageURL":null,"remarks":"45°59′12″N 95°19′40″W  /  45.9866293°N 95.3278143°W  / 45.9866293; -95.3278143  (Lake Carlos State Park)"},{"name":"Lake Louise State Park","location":"Mower","state":"Minnesota","country":"USA","imageURL":null,"remarks":"43°32′01″N 92°31′32″W  /  43.5335762°N 92.5254538°W  / 43.5335762; -92.5254538  (Lake Louise State Park)"},{"name":"Lake Maria State Park","location":"Wright","state":"Minnesota","country":"USA","imageURL":null,"remarks":"45°18′50″N 93°57′26″W  /  45.3138543°N 93.9572003°W  / 45.3138543; -93.9572003  (Lake Maria State Park)"},{"name":"Lake Shetek State Park","location":"Murray County","state":"Minnesota","country":"USA","imageURL":null,"remarks":"44°06′08″N 95°41′24″W  /  44.1021838°N 95.6900114°W  / 44.1021838; -95.6900114  (Lake Shetek State Park)"},{"name":"Lake Vermilion State Park","location":"St. Louis","state":"Minnesota","country":"USA","imageURL":null,"remarks":"47°50′05″N 92°11′53″W  /  47.83471°N 92.19812°W  / 47.83471; -92.19812  (Lake Vermilion State Park)"},{"name":"Maplewood State Park","location":"Otter Tail","state":"Minnesota","country":"USA","imageURL":null,"remarks":"46°32′01″N 95°56′57″W  /  46.5335703°N 95.9492193°W  / 46.5335703; -95.9492193  (Maplewood State Park)"},{"name":"McCarthy Beach State Park","location":"St. Louis","state":"Minnesota","country":"USA","imageURL":null,"remarks":"47°40′22″N 93°01′49″W  /  47.6727068°N 93.0301834°W  / 47.6727068; -93.0301834  (McCarthy Beach State Park)"},{"name":"Mille Lacs Kathio State Park","location":"Mille Lacs","state":"Minnesota","country":"USA","imageURL":null,"remarks":"46°07′44″N 93°44′26″W  /  46.1288485°N 93.7405269°W  / 46.1288485; -93.7405269  (Mille Lacs Kathio State Park)"},{"name":"Minneopa State Park","location":"Blue Earth","state":"Minnesota","country":"USA","imageURL":null,"remarks":"44°09′44″N 94°06′08″W  /  44.1621879°N 94.1021803°W  / 44.1621879; -94.1021803  (Minneopa State Park)"},{"name":"Minnesota Valley State Recreation Area","location":"Hennepin, Dakota, Scott, Carver, Sibley, and Le Sueur","state":"Minnesota","country":"USA","imageURL":null,"remarks":"44°39′43″N 93°42′12″W  /  44.661999°N 93.703337°W  / 44.661999; -93.703337  (Minnesota Valley State Recreation Area)"},{"name":"Monson Lake State Park","location":"Swift","state":"Minnesota","country":"USA","imageURL":null,"remarks":"45°19′14″N 95°16′30″W  /  45.3205175°N 95.2750235°W  / 45.3205175; -95.2750235  (Monson Lake Memorial State Park)"},{"name":"Moose Lake State Park","location":"Carlton","state":"Minnesota","country":"USA","imageURL":null,"remarks":"46°26′11″N 92°43′31″W  /  46.436319°N 92.72521°W  / 46.436319; -92.72521  (Moose Lake State Park)"},{"name":"Myre-Big Island State Park","location":"Freeborn","state":"Minnesota","country":"USA","imageURL":null,"remarks":"43°37′26″N 93°17′21″W  /  43.6238465°N 93.2890959°W  / 43.6238465; -93.2890959  (Myre-Big Island State Park)"},{"name":"Nerstrand-Big Woods State Park","location":"Rice","state":"Minnesota","country":"USA","imageURL":null,"remarks":"44°20′43″N 93°06′27″W  /  44.3452425°N 93.1074337°W  / 44.3452425; -93.1074337  (Nerstrand Big Woods State Park)"},{"name":"Old Mill State Park","location":"Marshall","state":"Minnesota","country":"USA","imageURL":null,"remarks":"48°21′41″N 96°34′13″W  /  48.361364°N 96.5703288°W  / 48.361364; -96.5703288  (Old Mill State Park)"},{"name":"Red River State Recreation Area","location":"Polk","state":"Minnesota","country":"USA","imageURL":null,"remarks":"47°55′58″N 97°02′08″W  /  47.9327778°N 97.0355556°W  / 47.9327778; -97.0355556  (Red River State Recreation Area)"},{"name":"Rice Lake State Park","location":"Steele and Dodge","state":"Minnesota","country":"USA","imageURL":null,"remarks":"44°05′15″N 93°03′41″W  /  44.0874639°N 93.061315°W  / 44.0874639; -93.061315  (Rice Lake State Park)"},{"name":"St. Croix Islands State Recreation Area","location":"Washington","state":"Minnesota","country":"USA","imageURL":null,"remarks":"45°05′07″N 92°47′10″W  /  45.08524°N 92.78608°W  / 45.08524; -92.78608  (St. Croix Islands State Recreation Area)"},{"name":"St. Croix State Park","location":"Pine","state":"Minnesota","country":"USA","imageURL":null,"remarks":"45°58′27″N 92°35′01″W  /  45.9741154°N 92.5835304°W  / 45.9741154; -92.5835304  (Saint Croix State Park)"},{"name":"Sakatah Lake State Park","location":"Le Sueur and Rice","state":"Minnesota","country":"USA","imageURL":null,"remarks":"44°13′16″N 93°32′09″W  /  44.2210746°N 93.5357792°W  / 44.2210746; -93.5357792  (Sakatah State Park)"},{"name":"Savanna Portage State Park","location":"Aitkin and St. Louis","state":"Minnesota","country":"USA","imageURL":null,"remarks":"46°50′15″N 93°09′24″W  /  46.8374455°N 93.1566054°W  / 46.8374455; -93.1566054  (Savanna Portage State Park)"},{"name":"Scenic State Park","location":"Itasca","state":"Minnesota","country":"USA","imageURL":null,"remarks":"47°42′57″N 93°33′47″W  /  47.7157733°N 93.5629701°W  / 47.7157733; -93.5629701  (Scenic State Park)"},{"name":"Schoolcraft State Park","location":"Cass and Itasca","state":"Minnesota","country":"USA","imageURL":null,"remarks":"47°13′30″N 93°48′00″W  /  47.2249502°N 93.7999449°W  / 47.2249502; -93.7999449  (Schoolcraft State Park)"},{"name":"Sibley State Park","location":"Kandiyohi","state":"Minnesota","country":"USA","imageURL":null,"remarks":"45°19′11″N 95°01′23″W  /  45.3196867°N 95.0230696°W  / 45.3196867; -95.0230696  (Sibley State Park)"},{"name":"Soudan Underground Mine State Park","location":"St. Louis","state":"Minnesota","country":"USA","imageURL":null,"remarks":"47°49′29″N 92°15′23″W  /  47.8246403°N 92.2562691°W  / 47.8246403; -92.2562691  (Soudan Underground Mine State Park)"},{"name":"Split Rock Creek State Park","location":"Pipestone","state":"Minnesota","country":"USA","imageURL":null,"remarks":"43°53′53″N 96°21′51″W  /  43.8980264°N 96.3642032°W  / 43.8980264; -96.3642032  (Split Rock Creek State Park)"},{"name":"Split Rock Lighthouse State Park","location":"Lake","state":"Minnesota","country":"USA","imageURL":null,"remarks":"47°11′32″N 91°23′35″W  /  47.1921472°N 91.3929484°W  / 47.1921472; -91.3929484  (Split Rock Lighthouse State Park)"},{"name":"Temperance River State Park","location":"Cook","state":"Minnesota","country":"USA","imageURL":null,"remarks":"47°33′16″N 90°52′21″W  /  47.5543466°N 90.8723722°W  / 47.5543466; -90.8723722  (Temperance River State Park)"},{"name":"Tettegouche State Park","location":"Lake","state":"Minnesota","country":"USA","imageURL":null,"remarks":"47°21′32″N 91°15′51″W  /  47.358806°N 91.2640506°W  / 47.358806; -91.2640506  (Tettegouche State Park)"},{"name":"Upper Sioux Agency State Park","location":"Yellow Medicine","state":"Minnesota","country":"USA","imageURL":null,"remarks":"44°44′17″N 95°27′14″W  /  44.7380132°N 95.4539039°W  / 44.7380132; -95.4539039  (Upper Sioux Agency State Park)"},{"name":"Whitewater State Park","location":"Winona","state":"Minnesota","country":"USA","imageURL":null,"remarks":"44°03′30″N 92°03′32″W  /  44.058297°N 92.0587726°W  / 44.058297; -92.0587726  (Whitewater State Park)"},{"name":"Wild River State Park","location":"Chisago","state":"Minnesota","country":"USA","imageURL":null,"remarks":"45°34′05″N 92°52′33″W  /  45.5680159°N 92.8757696°W  / 45.5680159; -92.8757696  (Wild River State Park)"},{"name":"William O'Brien State Park","location":"Washington","state":"Minnesota","country":"USA","imageURL":null,"remarks":"45°13′10″N 92°45′58″W  /  45.2194109°N 92.7660423°W  / 45.2194109; -92.7660423  (William O'Brien State Park)"},{"name":"Zippel Bay State Park","location":"Lake of the Woods","state":"Minnesota","country":"USA","imageURL":null,"remarks":"48°51′50″N 94°51′34″W  /  48.8638742°N 94.8593862°W  / 48.8638742; -94.8593862  (Zippel Bay State Park)"}]