[{"name":"Babler State Park","location":"St. Louis","state":"Missouri","country":"USA","imageURL":null,"remarks":null},{"name":"Sam A. Baker State Park","location":"Wayne","state":"Missouri","country":"USA","imageURL":null,"remarks":null},{"name":"Bennett Spring State Park","location":"Dallas, Laclede","state":"Missouri","country":"USA","imageURL":null,"remarks":null},{"name":"Big Lake State Park","location":"Holt","state":"Missouri","country":"USA","imageURL":null,"remarks":null},{"name":"Big Oak Tree State Park","location":"Mississippi","state":"Missouri","country":"USA","imageURL":null,"remarks":null},{"name":"Big Sugar Creek State Park","location":"McDonald","state":"Missouri","country":"USA","imageURL":null,"remarks":null},{"name":"Bryant Creek State Park","location":"Douglas","state":"Missouri","country":"USA","imageURL":null,"remarks":null},{"name":"Castlewood State Park","location":"St. Louis","state":"Missouri","country":"USA","imageURL":null,"remarks":null},{"name":"Crowder State Park","location":"Grundy","state":"Missouri","country":"USA","imageURL":null,"remarks":null},{"name":"Cuivre River State Park","location":"Lincoln","state":"Missouri","country":"USA","imageURL":null,"remarks":null},{"name":"Current River State Park","location":"Shannon","state":"Missouri","country":"USA","imageURL":null,"remarks":null},{"name":"Don Robinson State Park","location":"Jefferson","state":"Missouri","country":"USA","imageURL":null,"remarks":null},{"name":"Echo Bluff State Park","location":"Shannon","state":"Missouri","country":"USA","imageURL":null,"remarks":null},{"name":"Elephant Rocks State Park","location":"Iron","state":"Missouri","country":"USA","imageURL":null,"remarks":null},{"name":"Eleven Point State Park","location":"Oregon","state":"Missouri","country":"USA","imageURL":null,"remarks":null},{"name":"Finger Lakes State Park","location":"Boone","state":"Missouri","country":"USA","imageURL":null,"remarks":null},{"name":"Graham Cave State Park","location":"Montgomery","state":"Missouri","country":"USA","imageURL":null,"remarks":null},{"name":"Grand Gulf State Park","location":"Oregon","state":"Missouri","country":"USA","imageURL":null,"remarks":null},{"name":"Ha Ha Tonka State Park","location":"Camden","state":"Missouri","country":"USA","imageURL":null,"remarks":null},{"name":"Harry S Truman State Park","location":"Benton","state":"Missouri","country":"USA","imageURL":null,"remarks":null},{"name":"Hawn State Park","location":"Ste. Genevieve","state":"Missouri","country":"USA","imageURL":null,"remarks":null},{"name":"Jay Nixon State Park","location":"Reynolds","state":"Missouri","country":"USA","imageURL":null,"remarks":null},{"name":"Johnson's Shut-Ins State Park","location":"Reynolds","state":"Missouri","country":"USA","imageURL":null,"remarks":null},{"name":"Jones-Confluence Point State Park","location":"St. Charles","state":"Missouri","country":"USA","imageURL":null,"remarks":null},{"name":"Katy Trail State Park","location":"multiple","state":"Missouri","country":"USA","imageURL":null,"remarks":null},{"name":"Knob Noster State Park","location":"Johnson","state":"Missouri","country":"USA","imageURL":null,"remarks":null},{"name":"Lake of the Ozarks State Park","location":"Camden, Miller","state":"Missouri","country":"USA","imageURL":null,"remarks":null},{"name":"Lake Wappapello State Park","location":"Wayne","state":"Missouri","country":"USA","imageURL":null,"remarks":null},{"name":"Lewis and Clark State Park","location":"Buchanan","state":"Missouri","country":"USA","imageURL":null,"remarks":null},{"name":"Long Branch State Park","location":"Macon","state":"Missouri","country":"USA","imageURL":null,"remarks":null},{"name":"Mark Twain State Park","location":"Monroe","state":"Missouri","country":"USA","imageURL":null,"remarks":null},{"name":"Meramec State Park","location":"Franklin, Crawford, Washington","state":"Missouri","country":"USA","imageURL":null,"remarks":null},{"name":"Montauk State Park","location":"Dent","state":"Missouri","country":"USA","imageURL":null,"remarks":null},{"name":"Morris State Park","location":"Dunklin","state":"Missouri","country":"USA","imageURL":null,"remarks":null},{"name":"Onondaga Cave State Park","location":"Crawford","state":"Missouri","country":"USA","imageURL":null,"remarks":null},{"name":"Ozark Mountain State Park","location":"Taney","state":"Missouri","country":"USA","imageURL":null,"remarks":null},{"name":"Pershing State Park","location":"Linn","state":"Missouri","country":"USA","imageURL":null,"remarks":null},{"name":"Pomme de Terre State Park","location":"Hickory","state":"Missouri","country":"USA","imageURL":null,"remarks":null},{"name":"Prairie State Park","location":"Barton","state":"Missouri","country":"USA","imageURL":null,"remarks":null},{"name":"Roaring River State Park","location":"Barry","state":"Missouri","country":"USA","imageURL":null,"remarks":null},{"name":"Robertsville State Park","location":"Franklin","state":"Missouri","country":"USA","imageURL":null,"remarks":null},{"name":"Rock Bridge Memorial State Park","location":"Boone","state":"Missouri","country":"USA","imageURL":null,"remarks":null},{"name":"Rock Island Trail State Park","location":"multiple","state":"Missouri","country":"USA","imageURL":null,"remarks":null},{"name":"Roger Pryor Pioneer Backcountry","location":"multiple","state":"Missouri","country":"USA","imageURL":null,"remarks":null},{"name":"Route 66 State Park","location":"St. Louis","state":"Missouri","country":"USA","imageURL":null,"remarks":null},{"name":"St. Francois State Park","location":"St. Francois","state":"Missouri","country":"USA","imageURL":null,"remarks":null},{"name":"St. Joe State Park","location":"St. Francois","state":"Missouri","country":"USA","imageURL":null,"remarks":null},{"name":"Stockton State Park","location":"Cedar","state":"Missouri","country":"USA","imageURL":null,"remarks":null},{"name":"Table Rock State Park","location":"Taney, Stone","state":"Missouri","country":"USA","imageURL":null,"remarks":null},{"name":"Taum Sauk Mountain State Park","location":"Iron, Reynolds","state":"Missouri","country":"USA","imageURL":null,"remarks":null},{"name":"Thousand Hills State Park","location":"Adair","state":"Missouri","country":"USA","imageURL":null,"remarks":null},{"name":"Trail of Tears State Park","location":"Cape Girardeau","state":"Missouri","country":"USA","imageURL":null,"remarks":null},{"name":"Van Meter State Park","location":"Saline","state":"Missouri","country":"USA","imageURL":null,"remarks":null},{"name":"Wakonda State Park","location":"Lewis","state":"Missouri","country":"USA","imageURL":null,"remarks":null},{"name":"Wallace State Park","location":"Clinton","state":"Missouri","country":"USA","imageURL":null,"remarks":null},{"name":"Washington State Park","location":"Washington","state":"Missouri","country":"USA","imageURL":null,"remarks":null},{"name":"Watkins Woolen Mill State Park","location":"Clay","state":"Missouri","country":"USA","imageURL":null,"remarks":null},{"name":"Weston Bend State Park","location":"Platte","state":"Missouri","country":"USA","imageURL":null,"remarks":null}]