[{"name":"Buccaneer State Park","location":"Hancock","state":"Mississippi","country":"USA","imageURL":null,"remarks":"Waterpark, camping"},{"name":"Clark Creek Natural Area","location":"Wilkinson","state":"Mississippi","country":"USA","imageURL":null,"remarks":"Fifty waterfalls. 700 acres (280 ha)"},{"name":"Clarkco State Park","location":"Clarke","state":"Mississippi","country":"USA","imageURL":null,"remarks":"Boating, fishing, camping. 815 acres (330 ha)"},{"name":"Florewood State Park","location":"Leflore","state":"Mississippi","country":"USA","imageURL":null,"remarks":"Leased by Leflore County; \"temporarily closed\" since auction of artifacts and buildings in 2005"},{"name":"George P. Cossar State Park","location":"Yalobusha","state":"Mississippi","country":"USA","imageURL":null,"remarks":"Boating, fishing, camping"},{"name":"Golden Memorial State Park","location":"Leake","state":"Mississippi","country":"USA","imageURL":null,"remarks":"Fishing, camping"},{"name":"Great River Road State Park","location":"Bolivar","state":"Mississippi","country":"USA","imageURL":null,"remarks":"Mississippi River lookout tower"},{"name":"Holmes County State Park","location":"Holmes","state":"Mississippi","country":"USA","imageURL":null,"remarks":"Swimming, fishing, camping"},{"name":"Hugh White State Park","location":"Grenada","state":"Mississippi","country":"USA","imageURL":null,"remarks":"Boating, fishing, camping"},{"name":"John W. Kyle State Park","location":"Panola","state":"Mississippi","country":"USA","imageURL":null,"remarks":"Boating, fishing, camping, golf course"},{"name":"J. P. Coleman State Park","location":"Tishomingo","state":"Mississippi","country":"USA","imageURL":null,"remarks":"Boating, camping, swimming pool"},{"name":"Lake Lincoln State Park","location":"Lincoln","state":"Mississippi","country":"USA","imageURL":null,"remarks":"Boating, fishing, camping"},{"name":"Lake Lowndes State Park","location":"Lowndes","state":"Mississippi","country":"USA","imageURL":null,"remarks":"Boating, fishing, camping, equestrian trails, gymnasium"},{"name":"LeFleur's Bluff State Park","location":"Hinds","state":"Mississippi","country":"USA","imageURL":null,"remarks":"Hiking, boating, fishing; golf course, Mississippi Museum of Natural Science. 305 acres (123 ha)"},{"name":"Legion State Park","location":"Winston","state":"Mississippi","country":"USA","imageURL":null,"remarks":"Fishing, camping"},{"name":"Leroy Percy State Park","location":"Washington","state":"Mississippi","country":"USA","imageURL":null,"remarks":"Alligator watching, boating, fishing, camping"},{"name":"Natchez State Park","location":"Adams","state":"Mississippi","country":"USA","imageURL":null,"remarks":"Boating, fishing, camping, horseback riding"},{"name":"Paul B. Johnson State Park","location":"Forrest","state":"Mississippi","country":"USA","imageURL":null,"remarks":"Boating, fishing, camping"},{"name":"Percy Quin State Park","location":"Pike","state":"Mississippi","country":"USA","imageURL":null,"remarks":"Boating, fishing, camping; convention center"},{"name":"Roosevelt State Park","location":"Scott","state":"Mississippi","country":"USA","imageURL":null,"remarks":"Boating, fishing, camping"},{"name":"Shepard State Park","location":"Jackson","state":"Mississippi","country":"USA","imageURL":null,"remarks":"Small-craft boat ramp, camping, trails. 395 acres (160 ha)"},{"name":"Tishomingo State Park","location":"Tishomingo","state":"Mississippi","country":"USA","imageURL":null,"remarks":"Canoeing, fishing, camping, swimming pool"},{"name":"Tombigbee State Park","location":"Lee","state":"Mississippi","country":"USA","imageURL":null,"remarks":"Fishing, camping"},{"name":"Trace State Park","location":"Pontotoc","state":"Mississippi","country":"USA","imageURL":null,"remarks":"Off-road vehicle trails, golf course, boating, camping"},{"name":"Wall Doxey State Park","location":"Marshall","state":"Mississippi","country":"USA","imageURL":null,"remarks":"Fishing, camping"}]