[{"name":"Ackley Lake State Park","location":"Judith Basin","state":"Montana","country":"USA","imageURL":null,"remarks":"Ackley Lake"},{"name":"Anaconda Smelter Stack State Park","location":"Deer Lodge","state":"Montana","country":"USA","imageURL":null,"remarks":"none"},{"name":"Bannack State Park","location":"Beaverhead","state":"Montana","country":"USA","imageURL":null,"remarks":"Grasshopper Creek"},{"name":"Beaverhead Rock State Park","location":"Madison","state":"Montana","country":"USA","imageURL":null,"remarks":"Beaverhead River"},{"name":"Beavertail Hill State Park","location":"Missoula","state":"Montana","country":"USA","imageURL":null,"remarks":"Clark Fork"},{"name":"Big Arm State Park","location":"Lake","state":"Montana","country":"USA","imageURL":null,"remarks":"Flathead Lake"},{"name":"Black Sandy State Park","location":"Lewis and Clark","state":"Montana","country":"USA","imageURL":null,"remarks":"Hauser Reservoir"},{"name":"Brush Lake State Park","location":"Sheridan","state":"Montana","country":"USA","imageURL":null,"remarks":"Brush Lake"},{"name":"Chief Plenty Coups State Park","location":"Big Horn","state":"Montana","country":"USA","imageURL":null,"remarks":"Pryor Creek"},{"name":"Clark's Lookout State Park","location":"Beaverhead","state":"Montana","country":"USA","imageURL":null,"remarks":"Beaverhead River"},{"name":"Cooney State Park","location":"Carbon","state":"Montana","country":"USA","imageURL":null,"remarks":"Cooney Reservoir"},{"name":"Council Grove State Park","location":"Missoula","state":"Montana","country":"USA","imageURL":null,"remarks":"Clark Fork River"},{"name":"Elkhorn State Park","location":"Jefferson","state":"Montana","country":"USA","imageURL":null,"remarks":"none"},{"name":"Finley Point State Park","location":"Lake","state":"Montana","country":"USA","imageURL":null,"remarks":"Flathead Lake"},{"name":"First Peoples Buffalo Jump State Park","location":"Cascade","state":"Montana","country":"USA","imageURL":null,"remarks":"none"},{"name":"Fish Creek State Park","location":"Mineral","state":"Montana","country":"USA","imageURL":null,"remarks":"Fish Creek"},{"name":"Fort Owen State Park","location":"Ravalli","state":"Montana","country":"USA","imageURL":null,"remarks":"Mill Creek"},{"name":"Frenchtown Pond State Park","location":"Missoula","state":"Montana","country":"USA","imageURL":null,"remarks":"Frenchtown Pond"},{"name":"Giant Springs State Park","location":"Cascade","state":"Montana","country":"USA","imageURL":null,"remarks":"Missouri River and Roe River"},{"name":"Granite Ghost Town State Park","location":"Granite","state":"Montana","country":"USA","imageURL":null,"remarks":"none"},{"name":"Greycliff Prairie Dog Town State Park","location":"Sweet Grass","state":"Montana","country":"USA","imageURL":null,"remarks":"none"},{"name":"Hell Creek State Park","location":"Garfield","state":"Montana","country":"USA","imageURL":null,"remarks":"Fort Peck Lake"},{"name":"Lake Elmo State Park","location":"Yellowstone","state":"Montana","country":"USA","imageURL":null,"remarks":"Lake Elmo"},{"name":"Lake Mary Ronan State Park","location":"Lake","state":"Montana","country":"USA","imageURL":null,"remarks":"Flathead Lake"},{"name":"Les Mason State Park","location":"Flathead","state":"Montana","country":"USA","imageURL":null,"remarks":"Whitefish Lake"},{"name":"Lewis and Clark Caverns State Park","location":"Jefferson","state":"Montana","country":"USA","imageURL":null,"remarks":"none"},{"name":"Logan State Park","location":"Lincoln","state":"Montana","country":"USA","imageURL":null,"remarks":"Middle Thompson Lake"},{"name":"Lone Pine State Park","location":"Flathead","state":"Montana","country":"USA","imageURL":null,"remarks":"none"},{"name":"Lost Creek State Park","location":"Deer Lodge","state":"Montana","country":"USA","imageURL":null,"remarks":"Lost Creek"},{"name":"Milltown State Park","location":"Missoula","state":"Montana","country":"USA","imageURL":null,"remarks":"Clark Fork and Blackfoot rivers"},{"name":"Madison Buffalo Jump State Park","location":"Gallatin","state":"Montana","country":"USA","imageURL":null,"remarks":"none"},{"name":"Makoshika State Park","location":"Dawson","state":"Montana","country":"USA","imageURL":null,"remarks":"none"},{"name":"Marias River State Park","location":"Toole","state":"Montana","country":"USA","imageURL":null,"remarks":"Marias River"},{"name":"Medicine Rocks State Park","location":"Carter","state":"Montana","country":"USA","imageURL":null,"remarks":"none"},{"name":"Missouri Headwaters State Park","location":"Gallatin","state":"Montana","country":"USA","imageURL":null,"remarks":"Jefferson, Madison, and Gallatin rivers"},{"name":"North Shore State Park","location":"Flathead","state":"Montana","country":"USA","imageURL":null,"remarks":"Flathead Lake"},{"name":"Painted Rocks State Park","location":"Ravalli","state":"Montana","country":"USA","imageURL":null,"remarks":"Painted Rocks Reservoir, Bitterroot River"},{"name":"Pictograph Cave State Park","location":"Yellowstone","state":"Montana","country":"USA","imageURL":null,"remarks":"none"},{"name":"Pirogue Island State Park","location":"Custer","state":"Montana","country":"USA","imageURL":null,"remarks":"Yellowstone River"},{"name":"Placid Lake State Park","location":"Powell","state":"Montana","country":"USA","imageURL":null,"remarks":"Placid Lake"},{"name":"Rosebud Battlefield State Park","location":"Big Horn","state":"Montana","country":"USA","imageURL":null,"remarks":"none"},{"name":"Salmon Lake State Park","location":"Missoula","state":"Montana","country":"USA","imageURL":null,"remarks":"Salmon Lake, Clearwater River"},{"name":"Sluice Boxes State Park","location":"Cascade","state":"Montana","country":"USA","imageURL":null,"remarks":"Belt Creek"},{"name":"Smith River State Park","location":"Meagher","state":"Montana","country":"USA","imageURL":null,"remarks":"Smith River"},{"name":"Spring Meadow Lake State Park","location":"Lewis and Clark","state":"Montana","country":"USA","imageURL":null,"remarks":"Spring Meadow Lake"},{"name":"Thompson Falls State Park","location":"Sanders","state":"Montana","country":"USA","imageURL":null,"remarks":"Clark Fork, Noxon Rapids Reservoir"},{"name":"Tongue River Reservoir State Park","location":"Big Horn","state":"Montana","country":"USA","imageURL":null,"remarks":"Tongue River Reservoir"},{"name":"Tower Rock State Park","location":"Cascade","state":"Montana","country":"USA","imageURL":null,"remarks":"Near Missouri River"},{"name":"Travelers' Rest State Park","location":"Missoula","state":"Montana","country":"USA","imageURL":null,"remarks":"Lolo Creek"},{"name":"Wayfarers State Park","location":"Lake","state":"Montana","country":"USA","imageURL":null,"remarks":"Flathead Lake"},{"name":"West Shore State Park","location":"Lake","state":"Montana","country":"USA","imageURL":null,"remarks":"Flathead Lake"},{"name":"Whitefish Lake State Park","location":"Flathead","state":"Montana","country":"USA","imageURL":null,"remarks":"Whitefish Lake"},{"name":"Wild Horse Island State Park","location":"Lake","state":"Montana","country":"USA","imageURL":null,"remarks":"Flathead Lake"},{"name":"Yellow Bay State Park","location":"Lake","state":"Montana","country":"USA","imageURL":null,"remarks":"Flathead Lake, Yellow Bay Creek"}]