[{"name":"Beaver Dam State Park","location":"Lincoln","state":"Nevada","country":"USA","imageURL":null,"remarks":"1,630"},{"name":"Berlin–Ichthyosaur State Park","location":"Nye","state":"Nevada","country":"USA","imageURL":null,"remarks":"2,126"},{"name":"Big Bend of the Colorado State Recreation Area","location":"Clark","state":"Nevada","country":"USA","imageURL":null,"remarks":"150"},{"name":"Cathedral Gorge State Park","location":"Lincoln","state":"Nevada","country":"USA","imageURL":null,"remarks":"1,469"},{"name":"Cave Lake State Park","location":"White Pine","state":"Nevada","country":"USA","imageURL":null,"remarks":"2,194"},{"name":"Dayton State Park","location":"Lyon","state":"Nevada","country":"USA","imageURL":null,"remarks":"1,330"},{"name":"Echo Canyon State Park","location":"Lincoln","state":"Nevada","country":"USA","imageURL":null,"remarks":"1,630"},{"name":"Elgin Schoolhouse State Historic Site","location":"Lincoln","state":"Nevada","country":"USA","imageURL":null,"remarks":"1,037"},{"name":"Fort Churchill State Historic Park","location":"Lyon","state":"Nevada","country":"USA","imageURL":null,"remarks":"1,297"},{"name":"Kershaw–Ryan State Park","location":"Lincoln","state":"Nevada","country":"USA","imageURL":null,"remarks":"1,465"},{"name":"Lahontan State Recreation Area","location":"Churchill, Lyon","state":"Nevada","country":"USA","imageURL":null,"remarks":"1,298"},{"name":"Lake Tahoe – Nevada State Park","location":"Carson City, Washoe County","state":"Nevada","country":"USA","imageURL":null,"remarks":"2,400"},{"name":"Mormon Station State Historic Park","location":"Douglas","state":"Nevada","country":"USA","imageURL":null,"remarks":"1,458"},{"name":"Old Las Vegas Mormon Fort State Historic Park","location":"Clark","state":"Nevada","country":"USA","imageURL":null,"remarks":"586"},{"name":"Rye Patch State Recreation Area","location":"Pershing","state":"Nevada","country":"USA","imageURL":null,"remarks":"1,261"},{"name":"South Fork State Recreation Area","location":"Elko","state":"Nevada","country":"USA","imageURL":null,"remarks":"1,593"},{"name":"Spring Mountain Ranch State Park","location":"Clark","state":"Nevada","country":"USA","imageURL":null,"remarks":"1,136"},{"name":"Spring Valley State Park","location":"Lincoln","state":"Nevada","country":"USA","imageURL":null,"remarks":"1,789"},{"name":"Valley of Fire State Park","location":"Clark","state":"Nevada","country":"USA","imageURL":null,"remarks":"751"},{"name":"Van Sickle Bi-State Park","location":"Douglas","state":"Nevada","country":"USA","imageURL":null,"remarks":"1,915"},{"name":"Ward Charcoal Ovens State Historic Park","location":"White Pine","state":"Nevada","country":"USA","imageURL":null,"remarks":"2,150"},{"name":"Washoe Lake State Park","location":"Washoe","state":"Nevada","country":"USA","imageURL":null,"remarks":"1,534"},{"name":"Wild Horse State Recreation Area","location":"Elko","state":"Nevada","country":"USA","imageURL":null,"remarks":"1,900"}]