[{"name":"Allan H. Treman State Marine Park","location":"Finger Lakes","state":"New York","country":"USA","imageURL":null,"remarks":null},{"name":"Allegany State Park","location":"Allegany","state":"New York","country":"USA","imageURL":null,"remarks":null},{"name":"Amherst State Park","location":"Niagara","state":"New York","country":"USA","imageURL":null,"remarks":null},{"name":"Amsterdam Beach State Park","location":"Long Island","state":"New York","country":"USA","imageURL":null,"remarks":null},{"name":"Battle Island State Park","location":"Central","state":"New York","country":"USA","imageURL":null,"remarks":null},{"name":"Bayard Cutting Arboretum State Park","location":"Long Island","state":"New York","country":"USA","imageURL":null,"remarks":null},{"name":"Bayswater Point State Park","location":"New York City","state":"New York","country":"USA","imageURL":null,"remarks":null},{"name":"Bear Mountain State Park","location":"Palisades","state":"New York","country":"USA","imageURL":null,"remarks":null},{"name":"Beaver Island State Park","location":"Niagara","state":"New York","country":"USA","imageURL":null,"remarks":null},{"name":"Beechwood State Park","location":"Finger Lakes","state":"New York","country":"USA","imageURL":null,"remarks":null},{"name":"Belmont Lake State Park","location":"Long Island","state":"New York","country":"USA","imageURL":null,"remarks":null},{"name":"Bethpage State Park","location":"Long Island","state":"New York","country":"USA","imageURL":null,"remarks":null},{"name":"Betty and Wilbur Davis State Park","location":"Central","state":"New York","country":"USA","imageURL":null,"remarks":null},{"name":"Big Six Mile Creek Marina","location":"Niagara","state":"New York","country":"USA","imageURL":null,"remarks":null},{"name":"Blauvelt State Park","location":"Palisades","state":"New York","country":"USA","imageURL":null,"remarks":null},{"name":"Bonavista State Park Golf Course","location":"Finger Lakes","state":"New York","country":"USA","imageURL":null,"remarks":null},{"name":"Bowman Lake State Park","location":"Central","state":"New York","country":"USA","imageURL":null,"remarks":null},{"name":"Braddock Bay State Park","location":"Genesee","state":"New York","country":"USA","imageURL":null,"remarks":null},{"name":"Brentwood State Park","location":"Long Island","state":"New York","country":"USA","imageURL":null,"remarks":null},{"name":"Bristol Beach State Park","location":"Palisades","state":"New York","country":"USA","imageURL":null,"remarks":null},{"name":"Brookhaven State Park","location":"Long Island","state":"New York","country":"USA","imageURL":null,"remarks":null},{"name":"Buckhorn Island State Park","location":"Niagara","state":"New York","country":"USA","imageURL":null,"remarks":null},{"name":"Buffalo Harbor State Park","location":"Niagara","state":"New York","country":"USA","imageURL":null,"remarks":null},{"name":"Burnham Point State Park","location":"Thousand Islands","state":"New York","country":"USA","imageURL":null,"remarks":null},{"name":"Buttermilk Falls State Park","location":"Finger Lakes","state":"New York","country":"USA","imageURL":null,"remarks":null},{"name":"Caleb Smith State Park Preserve","location":"Long Island","state":"New York","country":"USA","imageURL":null,"remarks":null},{"name":"Camp Hero State Park","location":"Long Island","state":"New York","country":"USA","imageURL":null,"remarks":null},{"name":"Canandaigua Lake State Marine Park","location":"Finger Lakes","state":"New York","country":"USA","imageURL":null,"remarks":null},{"name":"Canoe-Picnic Point State Park","location":"Thousand Islands","state":"New York","country":"USA","imageURL":null,"remarks":null},{"name":"Captree State Park","location":"Long Island","state":"New York","country":"USA","imageURL":null,"remarks":null},{"name":"Catharine Valley Trail","location":"Finger Lakes","state":"New York","country":"USA","imageURL":null,"remarks":null},{"name":"Caumsett State Historic Park Preserve","location":"Long Island","state":"New York","country":"USA","imageURL":null,"remarks":null},{"name":"Cayuga Lake State Park","location":"Finger Lakes","state":"New York","country":"USA","imageURL":null,"remarks":null},{"name":"Cedar Island State Park","location":"Thousand Islands","state":"New York","country":"USA","imageURL":null,"remarks":null},{"name":"Cedar Point State Park","location":"Thousand Islands","state":"New York","country":"USA","imageURL":null,"remarks":null},{"name":"Chenango Valley State Park","location":"Central","state":"New York","country":"USA","imageURL":null,"remarks":null},{"name":"Cherry Plain State Park","location":"Saratoga/Capital District","state":"New York","country":"USA","imageURL":null,"remarks":null},{"name":"Chimney Bluffs State Park","location":"Finger Lakes","state":"New York","country":"USA","imageURL":null,"remarks":null},{"name":"Chittenango Falls State Park","location":"Central","state":"New York","country":"USA","imageURL":null,"remarks":null},{"name":"Clarence Fahnestock State Park","location":"Taconic","state":"New York","country":"USA","imageURL":null,"remarks":null},{"name":"Clark Reservation State Park","location":"Central","state":"New York","country":"USA","imageURL":null,"remarks":null},{"name":"Clay Pit Ponds State Park Preserve","location":"New York City","state":"New York","country":"USA","imageURL":null,"remarks":null},{"name":"Cold Spring Harbor State Park","location":"Long Island","state":"New York","country":"USA","imageURL":null,"remarks":null},{"name":"Coles Creek State Park","location":"Thousand Islands","state":"New York","country":"USA","imageURL":null,"remarks":null},{"name":"Conesus Lake Boat Launch","location":"Genesee","state":"New York","country":"USA","imageURL":null,"remarks":null},{"name":"Connetquot River State Park Preserve","location":"Long Island","state":"New York","country":"USA","imageURL":null,"remarks":null},{"name":"Crab Island State Park","location":"Thousand Islands","state":"New York","country":"USA","imageURL":null,"remarks":null},{"name":"Croil Island State Park","location":"Thousand Islands","state":"New York","country":"USA","imageURL":null,"remarks":null},{"name":"Cumberland Bay State Park","location":"Thousand Islands","state":"New York","country":"USA","imageURL":null,"remarks":null},{"name":"Darien Lakes State Park","location":"Genesee","state":"New York","country":"USA","imageURL":null,"remarks":null},{"name":"De Veaux Woods State Park","location":"Niagara","state":"New York","country":"USA","imageURL":null,"remarks":null},{"name":"Deans Cove Boat Launch","location":"Finger Lakes","state":"New York","country":"USA","imageURL":null,"remarks":null},{"name":"Delta Lake State Park","location":"Central","state":"New York","country":"USA","imageURL":null,"remarks":null},{"name":"Devil's Hole State Park","location":"Niagara","state":"New York","country":"USA","imageURL":null,"remarks":null},{"name":"Dewolf Point State Park","location":"Thousand Islands","state":"New York","country":"USA","imageURL":null,"remarks":null},{"name":"Donald J. Trump State Park","location":"Taconic","state":"New York","country":"USA","imageURL":null,"remarks":null},{"name":"Earl W. Brydges Artpark State Park","location":"Niagara","state":"New York","country":"USA","imageURL":null,"remarks":null},{"name":"East River State Park","location":"New York City","state":"New York","country":"USA","imageURL":null,"remarks":null},{"name":"Eel Weir State Park","location":"Thousand Islands","state":"New York","country":"USA","imageURL":null,"remarks":null},{"name":"Evangola State Park","location":"Niagara","state":"New York","country":"USA","imageURL":null,"remarks":null},{"name":"Fair Haven Beach State Park","location":"Finger Lakes","state":"New York","country":"USA","imageURL":null,"remarks":null},{"name":"Fillmore Glen State Park","location":"Finger Lakes","state":"New York","country":"USA","imageURL":null,"remarks":null},{"name":"Fort Niagara State Park","location":"Niagara","state":"New York","country":"USA","imageURL":null,"remarks":null},{"name":"Four Mile Creek State Park","location":"Niagara","state":"New York","country":"USA","imageURL":null,"remarks":null},{"name":"Franklin D. Roosevelt State Park","location":"Taconic","state":"New York","country":"USA","imageURL":null,"remarks":null},{"name":"Franklin D. Roosevelt Four Freedoms Park","location":"New York City","state":"New York","country":"USA","imageURL":null,"remarks":null},{"name":"Franny Reese State Park","location":"Palisades","state":"New York","country":"USA","imageURL":null,"remarks":null},{"name":"Galop Island State Park","location":"Thousand Islands","state":"New York","country":"USA","imageURL":null,"remarks":null},{"name":"Gantry Plaza State Park","location":"New York City","state":"New York","country":"USA","imageURL":null,"remarks":null},{"name":"Genesee Valley Greenway","location":"Genesee","state":"New York","country":"USA","imageURL":null,"remarks":null},{"name":"Gilbert Lake State Park","location":"Central","state":"New York","country":"USA","imageURL":null,"remarks":null},{"name":"Gilgo State Park","location":"Long Island","state":"New York","country":"USA","imageURL":null,"remarks":null},{"name":"Glimmerglass State Park","location":"Central","state":"New York","country":"USA","imageURL":null,"remarks":null},{"name":"Golden Hill State Park","location":"Niagara","state":"New York","country":"USA","imageURL":null,"remarks":null},{"name":"Goosepond Mountain State Park","location":"Palisades","state":"New York","country":"USA","imageURL":null,"remarks":null},{"name":"Grafton Lakes State Park","location":"Saratoga/Capital District","state":"New York","country":"USA","imageURL":null,"remarks":null},{"name":"Grass Point State Park","location":"Thousand Islands","state":"New York","country":"USA","imageURL":null,"remarks":null},{"name":"Green Lakes State Park","location":"Central","state":"New York","country":"USA","imageURL":null,"remarks":null},{"name":"Hallock State Park Preserve","location":"Long Island","state":"New York","country":"USA","imageURL":null,"remarks":null},{"name":"Hamlin Beach State Park","location":"Genesee","state":"New York","country":"USA","imageURL":null,"remarks":null},{"name":"Harriet Hollister Spencer State Recreation Area","location":"Finger Lakes","state":"New York","country":"USA","imageURL":null,"remarks":null},{"name":"Harriman State Park","location":"Palisades","state":"New York","country":"USA","imageURL":null,"remarks":null},{"name":"Hart's Brook Nature Preserve","location":"Taconic","state":"New York","country":"USA","imageURL":null,"remarks":null},{"name":"Haverstraw Beach State Park","location":"Palisades","state":"New York","country":"USA","imageURL":null,"remarks":null},{"name":"Heckscher State Park","location":"Long Island","state":"New York","country":"USA","imageURL":null,"remarks":null},{"name":"Helen L. McNitt State Park","location":"Central","state":"New York","country":"USA","imageURL":null,"remarks":null},{"name":"Hempstead Lake State Park","location":"Long Island","state":"New York","country":"USA","imageURL":null,"remarks":null},{"name":"High Tor State Park","location":"Palisades","state":"New York","country":"USA","imageURL":null,"remarks":null},{"name":"Highland Lakes State Park","location":"Palisades","state":"New York","country":"USA","imageURL":null,"remarks":null},{"name":"Higley Flow State Park","location":"Thousand Islands","state":"New York","country":"USA","imageURL":null,"remarks":null},{"name":"Hither Hills State Park","location":"Long Island","state":"New York","country":"USA","imageURL":null,"remarks":null},{"name":"Honeoye Lake Boat Launch State Park","location":"Finger Lakes","state":"New York","country":"USA","imageURL":null,"remarks":null},{"name":"Hook Mountain State Park","location":"Palisades","state":"New York","country":"USA","imageURL":null,"remarks":null},{"name":"Hudson Highlands State Park","location":"Taconic","state":"New York","country":"USA","imageURL":null,"remarks":null},{"name":"Hudson River Islands State Park","location":"Saratoga/Capital District","state":"New York","country":"USA","imageURL":null,"remarks":null},{"name":"Hudson River Park","location":"New York City","state":"New York","country":"USA","imageURL":null,"remarks":null},{"name":"Iona Island State Park","location":"Palisades","state":"New York","country":"USA","imageURL":null,"remarks":null},{"name":"Irondequoit Bay State Marine Park","location":"Genesee","state":"New York","country":"USA","imageURL":null,"remarks":null},{"name":"Jacques Cartier State Park","location":"Thousand Islands","state":"New York","country":"USA","imageURL":null,"remarks":null},{"name":"James Baird State Park","location":"Taconic","state":"New York","country":"USA","imageURL":null,"remarks":null},{"name":"Jay Estate","location":"Taconic","state":"New York","country":"USA","imageURL":null,"remarks":null},{"name":"John Boyd Thacher State Park","location":"Saratoga/Capital District","state":"New York","country":"USA","imageURL":null,"remarks":null},{"name":"Jones Beach State Park","location":"Long Island","state":"New York","country":"USA","imageURL":null,"remarks":null},{"name":"Joseph Davis State Park","location":"Niagara","state":"New York","country":"USA","imageURL":null,"remarks":null},{"name":"Keewaydin State Park","location":"Thousand Islands","state":"New York","country":"USA","imageURL":null,"remarks":null},{"name":"Keuka Lake State Park","location":"Finger Lakes","state":"New York","country":"USA","imageURL":null,"remarks":null},{"name":"Knox Farm State Park","location":"Niagara","state":"New York","country":"USA","imageURL":null,"remarks":null},{"name":"Kring Point State Park","location":"Thousand Islands","state":"New York","country":"USA","imageURL":null,"remarks":null},{"name":"Lake Erie State Park","location":"Allegany","state":"New York","country":"USA","imageURL":null,"remarks":null},{"name":"Lake Lauderdale State Park","location":"Saratoga/Capital District","state":"New York","country":"USA","imageURL":null,"remarks":null},{"name":"Lake Superior State Park","location":"Palisades","state":"New York","country":"USA","imageURL":null,"remarks":null},{"name":"Lake Taghkanic State Park","location":"Taconic","state":"New York","country":"USA","imageURL":null,"remarks":null},{"name":"Lakeside Beach State Park","location":"Genesee","state":"New York","country":"USA","imageURL":null,"remarks":null},{"name":"Letchworth State Park","location":"Genesee","state":"New York","country":"USA","imageURL":null,"remarks":null},{"name":"Lock 32 State Canal Park","location":"Genesee","state":"New York","country":"USA","imageURL":null,"remarks":null},{"name":"Lodi Point State Park","location":"Finger Lakes","state":"New York","country":"USA","imageURL":null,"remarks":null},{"name":"Long Point State Park - Finger Lakes","location":"Finger Lakes","state":"New York","country":"USA","imageURL":null,"remarks":null},{"name":"Long Point State Park - Thousand Islands","location":"Thousand Islands","state":"New York","country":"USA","imageURL":null,"remarks":null},{"name":"Long Point State Park on Lake Chautauqua","location":"Allegany","state":"New York","country":"USA","imageURL":null,"remarks":null},{"name":"Macomb Reservation State Park","location":"Thousand Islands","state":"New York","country":"USA","imageURL":null,"remarks":null},{"name":"Margaret Lewis Norrie State Park","location":"Taconic","state":"New York","country":"USA","imageURL":null,"remarks":null},{"name":"Mark Twain State Park and Soaring Eagles Golf Course","location":"Finger Lakes","state":"New York","country":"USA","imageURL":null,"remarks":null},{"name":"Mary Island State Park","location":"Thousand Islands","state":"New York","country":"USA","imageURL":null,"remarks":null},{"name":"Max V. Shaul State Park","location":"Saratoga/Capital District","state":"New York","country":"USA","imageURL":null,"remarks":null},{"name":"Mexico Point State Park","location":"Central","state":"New York","country":"USA","imageURL":null,"remarks":null},{"name":"Mexico Point Boat Launch","location":"Central","state":"New York","country":"USA","imageURL":null,"remarks":null},{"name":"Midway State Park","location":"Allegany","state":"New York","country":"USA","imageURL":null,"remarks":null},{"name":"Mine Kill State Park","location":"Saratoga/Capital District","state":"New York","country":"USA","imageURL":null,"remarks":null},{"name":"Miner Lake State Park","location":"North Country","state":"New York","country":"USA","imageURL":null,"remarks":null},{"name":"Minnewaska State Park Preserve","location":"Palisades","state":"New York","country":"USA","imageURL":null,"remarks":null},{"name":"Mohawk River State Park","location":"Saratoga/Capital District","state":"New York","country":"USA","imageURL":null,"remarks":null},{"name":"Montauk Downs State Park","location":"Long Island","state":"New York","country":"USA","imageURL":null,"remarks":null},{"name":"Montauk Point State Park","location":"Long Island","state":"New York","country":"USA","imageURL":null,"remarks":null},{"name":"Moreau Lake State Park","location":"Saratoga/Capital District","state":"New York","country":"USA","imageURL":null,"remarks":null},{"name":"Napeague State Park","location":"Long Island","state":"New York","country":"USA","imageURL":null,"remarks":null},{"name":"Newtown Battlefield State Park","location":"Finger Lakes","state":"New York","country":"USA","imageURL":null,"remarks":null},{"name":"Niagara Falls State Park","location":"Niagara","state":"New York","country":"USA","imageURL":null,"remarks":null},{"name":"Nissequogue River State Park","location":"Long Island","state":"New York","country":"USA","imageURL":null,"remarks":null},{"name":"Nyack Beach State Park","location":"Palisades","state":"New York","country":"USA","imageURL":null,"remarks":null},{"name":"Oak Orchard State Marine Park","location":"Genesee","state":"New York","country":"USA","imageURL":null,"remarks":null},{"name":"Ogden Mills & Ruth Livingston Mills State Park","location":"Taconic","state":"New York","country":"USA","imageURL":null,"remarks":null},{"name":"Old Croton Aqueduct State Historic Park","location":"Taconic","state":"New York","country":"USA","imageURL":null,"remarks":null},{"name":"Old Erie Canal State Historic Park","location":"Central","state":"New York","country":"USA","imageURL":null,"remarks":null},{"name":"Oquaga Creek State Park","location":"Central","state":"New York","country":"USA","imageURL":null,"remarks":null},{"name":"Orient Beach State Park","location":"Long Island","state":"New York","country":"USA","imageURL":null,"remarks":null},{"name":"Peebles Island State Park","location":"Saratoga/Capital District","state":"New York","country":"USA","imageURL":null,"remarks":null},{"name":"Pinnacle State Park and Golf Course","location":"Finger Lakes","state":"New York","country":"USA","imageURL":null,"remarks":null},{"name":"Pixley Falls State Park","location":"Central","state":"New York","country":"USA","imageURL":null,"remarks":null},{"name":"Point Au Roche State Park","location":"Thousand Islands","state":"New York","country":"USA","imageURL":null,"remarks":null},{"name":"Reservoir State Park","location":"Niagara","state":"New York","country":"USA","imageURL":null,"remarks":null},{"name":"Riverbank State Park","location":"New York City","state":"New York","country":"USA","imageURL":null,"remarks":null},{"name":"Robert Moses State Park (Long Island)","location":"Long Island","state":"New York","country":"USA","imageURL":null,"remarks":null},{"name":"Robert Moses State Park (Thousand Islands)","location":"Thousand Islands","state":"New York","country":"USA","imageURL":null,"remarks":null},{"name":"Robert V. Riddell State Park","location":"Central","state":"New York","country":"USA","imageURL":null,"remarks":null},{"name":"Robert H. Treman State Park","location":"Finger Lakes","state":"New York","country":"USA","imageURL":null,"remarks":null},{"name":"Robert G. Wehle State Park","location":"Thousand Islands","state":"New York","country":"USA","imageURL":null,"remarks":null},{"name":"Roberto Clemente State Park","location":"New York City","state":"New York","country":"USA","imageURL":null,"remarks":null},{"name":"Rock Island Lighthouse State Park","location":"Thousand Islands","state":"New York","country":"USA","imageURL":null,"remarks":null},{"name":"Rockefeller State Park Preserve","location":"Taconic","state":"New York","country":"USA","imageURL":null,"remarks":null},{"name":"Rockland Lake State Park","location":"Palisades","state":"New York","country":"USA","imageURL":null,"remarks":null},{"name":"St. Lawrence State Park Golf Course","location":"Thousand Islands","state":"New York","country":"USA","imageURL":null,"remarks":null},{"name":"Sampson State Park","location":"Finger Lakes","state":"New York","country":"USA","imageURL":null,"remarks":null},{"name":"Sandy Island Beach State Park","location":"Central","state":"New York","country":"USA","imageURL":null,"remarks":null},{"name":"Saratoga Lake State Boat Launch","location":"Saratoga/Capital District","state":"New York","country":"USA","imageURL":null,"remarks":null},{"name":"Saratoga Spa State Park","location":"Saratoga/Capital District","state":"New York","country":"USA","imageURL":null,"remarks":null},{"name":"Schodack Island State Park","location":"Saratoga/Capital District","state":"New York","country":"USA","imageURL":null,"remarks":null},{"name":"Schunnemunk State Park","location":"Palisades","state":"New York","country":"USA","imageURL":null,"remarks":null},{"name":"Selkirk Shores State Park","location":"Central","state":"New York","country":"USA","imageURL":null,"remarks":null},{"name":"Seneca Lake State Park","location":"Finger Lakes","state":"New York","country":"USA","imageURL":null,"remarks":null},{"name":"Shadmoor State Park","location":"Long Island","state":"New York","country":"USA","imageURL":null,"remarks":null},{"name":"Shirley Chisholm State Park","location":"New York City","state":"New York","country":"USA","imageURL":null,"remarks":null},{"name":"Silver Lake State Park","location":"Genesee","state":"New York","country":"USA","imageURL":null,"remarks":null},{"name":"Sojourner Truth State Park","location":"Palisades","state":"New York","country":"USA","imageURL":null,"remarks":null},{"name":"Sonnenberg Gardens & Mansion State Historic Park","location":"Finger Lakes","state":"New York","country":"USA","imageURL":null,"remarks":null},{"name":"Southwick Beach State Park","location":"Thousand Islands","state":"New York","country":"USA","imageURL":null,"remarks":null},{"name":"State Park at the Fair","location":"Central","state":"New York","country":"USA","imageURL":null,"remarks":null},{"name":"Sterling Forest State Park","location":"Palisades","state":"New York","country":"USA","imageURL":null,"remarks":null},{"name":"Stony Brook State Park","location":"Finger Lakes","state":"New York","country":"USA","imageURL":null,"remarks":null},{"name":"Storm King State Park","location":"Palisades","state":"New York","country":"USA","imageURL":null,"remarks":null},{"name":"Strawberry Island State Park","location":"Niagara","state":"New York","country":"USA","imageURL":null,"remarks":null},{"name":"Sunken Meadow State Park","location":"Long Island","state":"New York","country":"USA","imageURL":null,"remarks":null},{"name":"Taconic State Park – Copake Falls area","location":"Taconic","state":"New York","country":"USA","imageURL":null,"remarks":null},{"name":"Taconic State Park – Rudd Pond area","location":"Taconic","state":"New York","country":"USA","imageURL":null,"remarks":null},{"name":"Tallman Mountain State Park","location":"Palisades","state":"New York","country":"USA","imageURL":null,"remarks":null},{"name":"Taughannock Falls State Park","location":"Finger Lakes","state":"New York","country":"USA","imageURL":null,"remarks":null},{"name":"Thompson's Lake State Park","location":"Saratoga/Capital District","state":"New York","country":"USA","imageURL":null,"remarks":null},{"name":"Trail View State Park","location":"Long Island","state":"New York","country":"USA","imageURL":null,"remarks":null},{"name":"Two Rivers State Park Recreation Area","location":"Finger Lakes","state":"New York","country":"USA","imageURL":null,"remarks":null},{"name":"Valley Stream State Park","location":"Long Island","state":"New York","country":"USA","imageURL":null,"remarks":null},{"name":"Verona Beach State Park","location":"Central","state":"New York","country":"USA","imageURL":null,"remarks":null},{"name":"Walkway Over the Hudson State Historic Park","location":"Taconic","state":"New York","country":"USA","imageURL":null,"remarks":null},{"name":"Waterson Point State Park","location":"Thousand Islands","state":"New York","country":"USA","imageURL":null,"remarks":null},{"name":"Watkins Glen State Park","location":"Finger Lakes","state":"New York","country":"USA","imageURL":null,"remarks":null},{"name":"Wellesley Island State Park","location":"Thousand Islands","state":"New York","country":"USA","imageURL":null,"remarks":null},{"name":"Westcott Beach State Park","location":"Thousand Islands","state":"New York","country":"USA","imageURL":null,"remarks":null},{"name":"Whetstone Gulf State Park","location":"Thousand Islands","state":"New York","country":"USA","imageURL":null,"remarks":null},{"name":"Whirlpool State Park","location":"Niagara","state":"New York","country":"USA","imageURL":null,"remarks":null},{"name":"Wildwood State Park","location":"Long Island","state":"New York","country":"USA","imageURL":null,"remarks":null},{"name":"Wilson-Tuscarora State Park","location":"Niagara","state":"New York","country":"USA","imageURL":null,"remarks":null},{"name":"Wonder Lake State Park","location":"Taconic","state":"New York","country":"USA","imageURL":null,"remarks":null},{"name":"Woodlawn Beach State Park","location":"Niagara","state":"New York","country":"USA","imageURL":null,"remarks":null}]