[{"name":"Bluewater Lake State Park","location":"Cibola","state":"New Mexico","country":"USA","imageURL":null,"remarks":"2,300"},{"name":"Bottomless Lakes State Park","location":"Chaves","state":"New Mexico","country":"USA","imageURL":null,"remarks":"1,100"},{"name":"Brantley Lake State Park","location":"Eddy","state":"New Mexico","country":"USA","imageURL":null,"remarks":"1,000"},{"name":"Caballo Lake State Park","location":"Sierra","state":"New Mexico","country":"USA","imageURL":null,"remarks":"1,200"},{"name":"Cerrillos Hills State Park","location":"Santa Fe","state":"New Mexico","country":"USA","imageURL":null,"remarks":""},{"name":"Cimarron Canyon State Park","location":"Colfax","state":"New Mexico","country":"USA","imageURL":null,"remarks":"2,300"},{"name":"City of Rocks State Park","location":"Grant","state":"New Mexico","country":"USA","imageURL":null,"remarks":"1,600"},{"name":"Clayton Lake State Park","location":"Union","state":"New Mexico","country":"USA","imageURL":null,"remarks":"1,540"},{"name":"Conchas Lake State Park","location":"San Miguel","state":"New Mexico","country":"USA","imageURL":null,"remarks":"1,300"},{"name":"Coyote Creek State Park","location":"Mora","state":"New Mexico","country":"USA","imageURL":null,"remarks":"2,300"},{"name":"Eagle Nest Lake State Park","location":"Colfax","state":"New Mexico","country":"USA","imageURL":null,"remarks":"2,500"},{"name":"Elephant Butte Lake State Park","location":"Sierra","state":"New Mexico","country":"USA","imageURL":null,"remarks":"1,400"},{"name":"El Vado Lake State Park","location":"Rio Arriba","state":"New Mexico","country":"USA","imageURL":null,"remarks":"2,100"},{"name":"Fenton Lake State Park","location":"Sandoval","state":"New Mexico","country":"USA","imageURL":null,"remarks":"2,400"},{"name":"Heron Lake State Park","location":"Rio Arriba","state":"New Mexico","country":"USA","imageURL":null,"remarks":"2,200"},{"name":"Hyde Memorial State Park","location":"Santa Fe","state":"New Mexico","country":"USA","imageURL":null,"remarks":"2,600"},{"name":"Leasburg Dam State Park","location":"Doña Ana","state":"New Mexico","country":"USA","imageURL":null,"remarks":"1,300"},{"name":"Living Desert Zoo and Gardens State Park","location":"Eddy","state":"New Mexico","country":"USA","imageURL":null,"remarks":"980"},{"name":"Manzano Mountains State Park","location":"Torrance","state":"New Mexico","country":"USA","imageURL":null,"remarks":"2,300"},{"name":"Mesilla Valley Bosque State Park","location":"Doña Ana","state":"New Mexico","country":"USA","imageURL":null,"remarks":"1,200"},{"name":"Morphy Lake State Park","location":"Mora","state":"New Mexico","country":"USA","imageURL":null,"remarks":"2,400"},{"name":"Navajo Lake State Park","location":"Rio Arriba and San Juan","state":"New Mexico","country":"USA","imageURL":null,"remarks":"1,900"},{"name":"Oasis State Park","location":"Roosevelt","state":"New Mexico","country":"USA","imageURL":null,"remarks":"1,200"},{"name":"Oliver Lee Memorial State Park","location":"Otero","state":"New Mexico","country":"USA","imageURL":null,"remarks":"1,330"},{"name":"Pancho Villa State Park","location":"Luna","state":"New Mexico","country":"USA","imageURL":null,"remarks":"1,240"},{"name":"Percha Dam State Park","location":"Sierra","state":"New Mexico","country":"USA","imageURL":null,"remarks":"1,200"},{"name":"Rio Grande Nature Center State Park","location":"Bernalillo","state":"New Mexico","country":"USA","imageURL":null,"remarks":"1,500"},{"name":"Rockhound State Park","location":"Luna","state":"New Mexico","country":"USA","imageURL":null,"remarks":"1,400"},{"name":"Santa Rosa Lake State Park","location":"Guadalupe","state":"New Mexico","country":"USA","imageURL":null,"remarks":"1,500"},{"name":"Storrie Lake State Park","location":"San Miguel","state":"New Mexico","country":"USA","imageURL":null,"remarks":"2,000"},{"name":"Sugarite Canyon State Park","location":"Colfax","state":"New Mexico","country":"USA","imageURL":null,"remarks":"2,120"},{"name":"Sumner Lake State Park","location":"De Baca","state":"New Mexico","country":"USA","imageURL":null,"remarks":"1,300"},{"name":"Ute Lake State Park","location":"Quay","state":"New Mexico","country":"USA","imageURL":null,"remarks":"1,200"},{"name":"Vietnam Veterans Memorial State Park","location":"Colfax","state":"New Mexico","country":"USA","imageURL":null,"remarks":"2,600"},{"name":"Villanueva State Park","location":"San Miguel","state":"New Mexico","country":"USA","imageURL":null,"remarks":"1,700"}]