[{"name":"Ahern State Park","location":"Belknap","state":"New Hampshire","country":"USA","imageURL":null,"remarks":null},{"name":"Androscoggin Wayside Park","location":"Coös","state":"New Hampshire","country":"USA","imageURL":null,"remarks":null},{"name":"Bear Brook State Park","location":"Merrimack","state":"New Hampshire","country":"USA","imageURL":null,"remarks":null},{"name":"Beaver Brook Falls Wayside","location":"Coös","state":"New Hampshire","country":"USA","imageURL":null,"remarks":null},{"name":"Cardigan Mountain State Park","location":"Grafton","state":"New Hampshire","country":"USA","imageURL":null,"remarks":null},{"name":"Chesterfield Gorge Natural Area","location":"Cheshire","state":"New Hampshire","country":"USA","imageURL":null,"remarks":null},{"name":"Clough State Park","location":"Hillsborough","state":"New Hampshire","country":"USA","imageURL":null,"remarks":null},{"name":"Coleman State Park","location":"Coös","state":"New Hampshire","country":"USA","imageURL":null,"remarks":null},{"name":"Crawford Notch State Park","location":"Carroll","state":"New Hampshire","country":"USA","imageURL":null,"remarks":null},{"name":"Deer Mountain Campground","location":"Coös","state":"New Hampshire","country":"USA","imageURL":null,"remarks":null},{"name":"Dixville Notch State Park","location":"Coös","state":"New Hampshire","country":"USA","imageURL":null,"remarks":null},{"name":"Echo Lake State Park","location":"Carroll","state":"New Hampshire","country":"USA","imageURL":null,"remarks":null},{"name":"Eisenhower Memorial Wayside Park","location":"Coös","state":"New Hampshire","country":"USA","imageURL":null,"remarks":null},{"name":"Ellacoya State Park","location":"Belknap","state":"New Hampshire","country":"USA","imageURL":null,"remarks":null},{"name":"Forest Lake State Park","location":"Coös","state":"New Hampshire","country":"USA","imageURL":null,"remarks":null},{"name":"Franconia Notch State Park","location":"Grafton","state":"New Hampshire","country":"USA","imageURL":null,"remarks":null},{"name":"Gardner Memorial Wayside Park","location":"Sullivan","state":"New Hampshire","country":"USA","imageURL":null,"remarks":null},{"name":"Greenfield State Park","location":"Hillsborough","state":"New Hampshire","country":"USA","imageURL":null,"remarks":null},{"name":"Hampton Beach State Park","location":"Rockingham","state":"New Hampshire","country":"USA","imageURL":null,"remarks":null},{"name":"Jenness State Beach","location":"Rockingham","state":"New Hampshire","country":"USA","imageURL":null,"remarks":null},{"name":"Jericho Mountain State Park","location":"Coös","state":"New Hampshire","country":"USA","imageURL":null,"remarks":null},{"name":"Kingston State Park","location":"Rockingham","state":"New Hampshire","country":"USA","imageURL":null,"remarks":null},{"name":"Lake Francis State Park","location":"Coös","state":"New Hampshire","country":"USA","imageURL":null,"remarks":null},{"name":"Lake Tarleton State Park","location":"Grafton","state":"New Hampshire","country":"USA","imageURL":null,"remarks":null},{"name":"Madison Boulder Natural Area","location":"Carroll","state":"New Hampshire","country":"USA","imageURL":null,"remarks":null},{"name":"Milan Hill State Park","location":"Coös","state":"New Hampshire","country":"USA","imageURL":null,"remarks":null},{"name":"Miller State Park","location":"Hillsborough","state":"New Hampshire","country":"USA","imageURL":null,"remarks":null},{"name":"Mollidgewock State Park","location":"Coös","state":"New Hampshire","country":"USA","imageURL":null,"remarks":null},{"name":"Monadnock State Park","location":"Cheshire","state":"New Hampshire","country":"USA","imageURL":null,"remarks":null},{"name":"Moose Brook State Park","location":"Coös","state":"New Hampshire","country":"USA","imageURL":null,"remarks":null},{"name":"Mount Sunapee State Park","location":"Merrimack","state":"New Hampshire","country":"USA","imageURL":null,"remarks":null},{"name":"Mount Washington State Park","location":"Coös","state":"New Hampshire","country":"USA","imageURL":null,"remarks":null},{"name":"Nansen Wayside Park","location":"Coös","state":"New Hampshire","country":"USA","imageURL":null,"remarks":null},{"name":"North Hampton State Beach","location":"Rockingham","state":"New Hampshire","country":"USA","imageURL":null,"remarks":null},{"name":"Northwood Meadows State Park","location":"Rockingham","state":"New Hampshire","country":"USA","imageURL":null,"remarks":null},{"name":"Odiorne Point State Park","location":"Rockingham","state":"New Hampshire","country":"USA","imageURL":null,"remarks":null},{"name":"Pawtuckaway State Park","location":"Rockingham","state":"New Hampshire","country":"USA","imageURL":null,"remarks":null},{"name":"Pillsbury State Park","location":"Sullivan","state":"New Hampshire","country":"USA","imageURL":null,"remarks":null},{"name":"Pisgah State Park","location":"Cheshire","state":"New Hampshire","country":"USA","imageURL":null,"remarks":null},{"name":"Rhododendron State Park","location":"Cheshire","state":"New Hampshire","country":"USA","imageURL":null,"remarks":null},{"name":"Rollins State Park","location":"Merrimack","state":"New Hampshire","country":"USA","imageURL":null,"remarks":null},{"name":"Rye Harbor State Park","location":"Rockingham","state":"New Hampshire","country":"USA","imageURL":null,"remarks":null},{"name":"Sculptured Rocks Natural Area","location":"Grafton","state":"New Hampshire","country":"USA","imageURL":null,"remarks":null},{"name":"Silver Lake State Park","location":"Hillsborough","state":"New Hampshire","country":"USA","imageURL":null,"remarks":null},{"name":"Umbagog Lake State Park","location":"Coös","state":"New Hampshire","country":"USA","imageURL":null,"remarks":null},{"name":"Wadleigh State Park","location":"Merrimack","state":"New Hampshire","country":"USA","imageURL":null,"remarks":null},{"name":"Wallis Sands State Beach","location":"Rockingham","state":"New Hampshire","country":"USA","imageURL":null,"remarks":null},{"name":"Weeks State Park","location":"Coös","state":"New Hampshire","country":"USA","imageURL":null,"remarks":null},{"name":"Wellington State Park","location":"Grafton","state":"New Hampshire","country":"USA","imageURL":null,"remarks":null},{"name":"Wentworth State Park","location":"Carroll","state":"New Hampshire","country":"USA","imageURL":null,"remarks":null},{"name":"White Lake State Park","location":"Carroll","state":"New Hampshire","country":"USA","imageURL":null,"remarks":null},{"name":"Winslow State Park","location":"Merrimack","state":"New Hampshire","country":"USA","imageURL":null,"remarks":null}]