[{"name":"Beaver Lake State Park","location":"Logan","state":"North Dakota","country":"USA","imageURL":null,"remarks":"Boating, fishing, camping"},{"name":"Butte Saint Paul State Recreation Area","location":"Bottineau","state":"North Dakota","country":"USA","imageURL":null,"remarks":"Turtle Mountains vista point"},{"name":"Cross Ranch State Park","location":"Oliver","state":"North Dakota","country":"USA","imageURL":null,"remarks":"Boating, canoeing, camping"},{"name":"Crow Flies High State Recreation Area","location":"Mountrail","state":"North Dakota","country":"USA","imageURL":null,"remarks":"Scenic lake views"},{"name":"Fort Abraham Lincoln State Park","location":"Morton","state":"North Dakota","country":"USA","imageURL":null,"remarks":"Home to On-A-Slant Indian Village"},{"name":"Fort Ransom State Park","location":"Ransom","state":"North Dakota","country":"USA","imageURL":null,"remarks":"Preserved homesteader farms"},{"name":"Fort Stevenson State Park","location":"McLean","state":"North Dakota","country":"USA","imageURL":null,"remarks":"Includes Fort Stevenson State Park Arboretum"},{"name":"Grahams Island State Park","location":"Ramsey","state":"North Dakota","country":"USA","imageURL":null,"remarks":"Last remaining unit of the four former Devils Lake State Parks"},{"name":"Icelandic State Park","location":"Pembina","state":"North Dakota","country":"USA","imageURL":null,"remarks":"Includes the Gunlogson Arboretum Nature Preserve"},{"name":"Lake Metigoshe State Park","location":"Bottineau","state":"North Dakota","country":"USA","imageURL":null,"remarks":"Adjacent to Turtle Mountain Provincial Park, Manitoba"},{"name":"Lake Sakakawea State Park","location":"Mercer","state":"North Dakota","country":"USA","imageURL":null,"remarks":"Adjacent to Garrison Dam"},{"name":"Lewis and Clark State Park","location":"Williams","state":"North Dakota","country":"USA","imageURL":null,"remarks":"Fishing, boating, camping"},{"name":"Little Metigoshe State Recreation Area","location":"Bottineau","state":"North Dakota","country":"USA","imageURL":null,"remarks":"Picnicking, fishing"},{"name":"Little Missouri State Park","location":"Dunn","state":"North Dakota","country":"USA","imageURL":null,"remarks":"Badlands hiking and equestrian trails"},{"name":"Pelican Point State Recreation Area","location":"Bottineau","state":"North Dakota","country":"USA","imageURL":null,"remarks":"Undeveloped day-use area"},{"name":"Pembina Gorge State Recreation Area","location":"Cavalier","state":"North Dakota","country":"USA","imageURL":null,"remarks":"River kayaking; trails for hiking, horseback riding, and off-road vehicles"},{"name":"Sully Creek State Park","location":"Billings","state":"North Dakota","country":"USA","imageURL":null,"remarks":"Start of the Maah Daah Hey Trail"},{"name":"Turtle River State Park","location":"Grand Forks","state":"North Dakota","country":"USA","imageURL":null,"remarks":"Camping, fishing, trails"}]