[{"name":"A. W. Marion State Park","location":"Pickaway","state":"Ohio","country":"USA","imageURL":null,"remarks":null},{"name":"Adams Lake State Park","location":"Adams","state":"Ohio","country":"USA","imageURL":null,"remarks":null},{"name":"Alum Creek State Park","location":"Delaware","state":"Ohio","country":"USA","imageURL":null,"remarks":null},{"name":"Barkcamp State Park","location":"Belmont","state":"Ohio","country":"USA","imageURL":null,"remarks":null},{"name":"Beaver Creek State Park","location":"Columbiana","state":"Ohio","country":"USA","imageURL":null,"remarks":null},{"name":"Blue Rock State Park","location":"Muskingum","state":"Ohio","country":"USA","imageURL":null,"remarks":null},{"name":"Buck Creek State Park","location":"Clark","state":"Ohio","country":"USA","imageURL":null,"remarks":null},{"name":"Buckeye Lake State Park","location":"Fairfield, Perry","state":"Ohio","country":"USA","imageURL":null,"remarks":null},{"name":"Burr Oak State Park","location":"Athens, Morgan","state":"Ohio","country":"USA","imageURL":null,"remarks":null},{"name":"Caesar Creek State Park","location":"Warren, Clinton, Greene","state":"Ohio","country":"USA","imageURL":null,"remarks":null},{"name":"Catawba Island State Park","location":"Ottawa","state":"Ohio","country":"USA","imageURL":null,"remarks":null},{"name":"Cowan Lake State Park","location":"Clinton","state":"Ohio","country":"USA","imageURL":null,"remarks":null},{"name":"Deer Creek State Park","location":"Fayette, Pickaway","state":"Ohio","country":"USA","imageURL":null,"remarks":null},{"name":"Delaware State Park","location":"Delaware","state":"Ohio","country":"USA","imageURL":null,"remarks":null},{"name":"Dillon State Park","location":"Muskingum","state":"Ohio","country":"USA","imageURL":null,"remarks":null},{"name":"East Fork State Park","location":"Clermont","state":"Ohio","country":"USA","imageURL":null,"remarks":null},{"name":"East Harbor State Park","location":"Ottawa","state":"Ohio","country":"USA","imageURL":null,"remarks":null},{"name":"Findley State Park","location":"Lorain","state":"Ohio","country":"USA","imageURL":null,"remarks":null},{"name":"Forked Run State Park","location":"Meigs","state":"Ohio","country":"USA","imageURL":null,"remarks":null},{"name":"Geneva State Park","location":"Ashtabula","state":"Ohio","country":"USA","imageURL":null,"remarks":null},{"name":"Grand Lake St. Marys State Park","location":"Auglaize","state":"Ohio","country":"USA","imageURL":null,"remarks":null},{"name":"Great Council State Park (scheduled to open 2023)","location":"Greene","state":"Ohio","country":"USA","imageURL":null,"remarks":null},{"name":"Great Seal State Park","location":"Ross","state":"Ohio","country":"USA","imageURL":null,"remarks":null},{"name":"Guilford Lake State Park","location":"Columbiana","state":"Ohio","country":"USA","imageURL":null,"remarks":null},{"name":"Harrison Lake State Park","location":"Fulton","state":"Ohio","country":"USA","imageURL":null,"remarks":null},{"name":"Headlands Beach State Park","location":"Lake","state":"Ohio","country":"USA","imageURL":null,"remarks":null},{"name":"Hocking Hills State Park","location":"Hocking","state":"Ohio","country":"USA","imageURL":null,"remarks":null},{"name":"Hueston Woods State Park","location":"Butler, Preble","state":"Ohio","country":"USA","imageURL":null,"remarks":null},{"name":"Independence Dam State Park","location":"Defiance","state":"Ohio","country":"USA","imageURL":null,"remarks":null},{"name":"Indian Lake State Park","location":"Logan","state":"Ohio","country":"USA","imageURL":null,"remarks":null},{"name":"Jackson Lake State Park","location":"Jackson","state":"Ohio","country":"USA","imageURL":null,"remarks":null},{"name":"Jefferson Lake State Park","location":"Jefferson","state":"Ohio","country":"USA","imageURL":null,"remarks":null},{"name":"Jesse Owens State Park","location":"Morgan","state":"Ohio","country":"USA","imageURL":null,"remarks":null},{"name":"John Bryan State Park","location":"Greene","state":"Ohio","country":"USA","imageURL":null,"remarks":null},{"name":"Kelleys Island State Park","location":"Erie","state":"Ohio","country":"USA","imageURL":null,"remarks":null},{"name":"Kiser Lake State Park","location":"Champaign","state":"Ohio","country":"USA","imageURL":null,"remarks":null},{"name":"Lake Alma State Park","location":"Vinton","state":"Ohio","country":"USA","imageURL":null,"remarks":null},{"name":"Lake Hope State Park","location":"Vinton","state":"Ohio","country":"USA","imageURL":null,"remarks":null},{"name":"Lake Logan State Park","location":"Hocking","state":"Ohio","country":"USA","imageURL":null,"remarks":null},{"name":"Lake Loramie State Park","location":"Auglaize","state":"Ohio","country":"USA","imageURL":null,"remarks":null},{"name":"Lake Milton State Park","location":"Mahoning","state":"Ohio","country":"USA","imageURL":null,"remarks":null},{"name":"Lake White State Park","location":"Pike","state":"Ohio","country":"USA","imageURL":null,"remarks":null},{"name":"Little Miami State Park","location":"Hamilton, Clermont, Warren, Greene","state":"Ohio","country":"USA","imageURL":null,"remarks":null},{"name":"Madison Lake State Park","location":"Madison","state":"Ohio","country":"USA","imageURL":null,"remarks":null},{"name":"Malabar Farm State Park","location":"Richland","state":"Ohio","country":"USA","imageURL":null,"remarks":null},{"name":"Mary Jane Thurston State Park","location":"Henry","state":"Ohio","country":"USA","imageURL":null,"remarks":null},{"name":"Maumee Bay State Park","location":"Lucas","state":"Ohio","country":"USA","imageURL":null,"remarks":null},{"name":"Middle Bass Island State Park","location":"Ottawa","state":"Ohio","country":"USA","imageURL":null,"remarks":null},{"name":"Mohican State Park","location":"Ashland, Holmes","state":"Ohio","country":"USA","imageURL":null,"remarks":null},{"name":"Mosquito Lake State Park","location":"Trumbull","state":"Ohio","country":"USA","imageURL":null,"remarks":null},{"name":"Mount Gilead State Park","location":"Morrow","state":"Ohio","country":"USA","imageURL":null,"remarks":null},{"name":"Muskingum River State Park","location":"","state":"Ohio","country":"USA","imageURL":null,"remarks":null},{"name":"Nelson Kennedy Ledges State Park","location":"Portage","state":"Ohio","country":"USA","imageURL":null,"remarks":null},{"name":"Oak Point State Park","location":"Ottawa","state":"Ohio","country":"USA","imageURL":null,"remarks":null},{"name":"Paint Creek State Park","location":"Ross","state":"Ohio","country":"USA","imageURL":null,"remarks":null},{"name":"Pike Lake State Park","location":"Ross","state":"Ohio","country":"USA","imageURL":null,"remarks":null},{"name":"Portage Lakes State Park","location":"Summit","state":"Ohio","country":"USA","imageURL":null,"remarks":null},{"name":"Punderson State Park","location":"Geauga","state":"Ohio","country":"USA","imageURL":null,"remarks":null},{"name":"Pymatuning State Park","location":"Ashtabula","state":"Ohio","country":"USA","imageURL":null,"remarks":null},{"name":"Quail Hollow State Park","location":"Stark","state":"Ohio","country":"USA","imageURL":null,"remarks":null},{"name":"Rocky Fork State Park","location":"Highland","state":"Ohio","country":"USA","imageURL":null,"remarks":null},{"name":"Salt Fork State Park","location":"Guernsey","state":"Ohio","country":"USA","imageURL":null,"remarks":null},{"name":"Scioto Trail State Park","location":"Ross","state":"Ohio","country":"USA","imageURL":null,"remarks":null},{"name":"Shawnee State Park","location":"Scioto","state":"Ohio","country":"USA","imageURL":null,"remarks":null},{"name":"South Bass Island State Park","location":"Ottawa","state":"Ohio","country":"USA","imageURL":null,"remarks":null},{"name":"Spiegel Grove State Park","location":"Sandusky","state":"Ohio","country":"USA","imageURL":null,"remarks":null},{"name":"Stonelick State Park","location":"Clermont","state":"Ohio","country":"USA","imageURL":null,"remarks":null},{"name":"Strouds Run State Park","location":"Athens","state":"Ohio","country":"USA","imageURL":null,"remarks":null},{"name":"Sycamore State Park","location":"Montgomery","state":"Ohio","country":"USA","imageURL":null,"remarks":null},{"name":"Tar Hollow State Park","location":"Hocking","state":"Ohio","country":"USA","imageURL":null,"remarks":null},{"name":"Tinker's Creek State Park","location":"Geauga","state":"Ohio","country":"USA","imageURL":null,"remarks":null},{"name":"Van Buren State Park","location":"Hancock","state":"Ohio","country":"USA","imageURL":null,"remarks":null},{"name":"West Branch State Park","location":"Portage","state":"Ohio","country":"USA","imageURL":null,"remarks":null},{"name":"Wingfoot Lake State Park","location":"Portage","state":"Ohio","country":"USA","imageURL":null,"remarks":null},{"name":"Wolf Run State Park","location":"Noble","state":"Ohio","country":"USA","imageURL":null,"remarks":null}]