[{"name":"Alabaster Caverns State Park","location":"Woodward","state":"Oklahoma","country":"USA","imageURL":null,"remarks":"Largest public gypsum cave in the United States"},{"name":"Arrowhead State Park","location":"Pittsburg","state":"Oklahoma","country":"USA","imageURL":null,"remarks":"On a peninsula in Lake Eufaula. Lodge and cabins are closed. Now known as Arrowhead Area at Lake Eufaula State Park."},{"name":"Beavers Bend State Park","location":"McCurtain","state":"Oklahoma","country":"USA","imageURL":null,"remarks":""},{"name":"Bernice State Park","location":"Delaware","state":"Oklahoma","country":"USA","imageURL":null,"remarks":"Now known as the Bernice Area at Grand Lake State Park."},{"name":"Black Mesa State Park","location":"Cimarron","state":"Oklahoma","country":"USA","imageURL":null,"remarks":"Black Mesa Nature Preserve established in 1991 by the Oklahoma Nature Conservancies"},{"name":"Boiling Springs State Park","location":"Woodward","state":"Oklahoma","country":"USA","imageURL":null,"remarks":""},{"name":"Cherokee Landing State Park","location":"Cherokee","state":"Oklahoma","country":"USA","imageURL":null,"remarks":""},{"name":"Cherokee State Park","location":"Mayes","state":"Oklahoma","country":"USA","imageURL":null,"remarks":""},{"name":"Clayton Lake State Park","location":"Pushmataha","state":"Oklahoma","country":"USA","imageURL":null,"remarks":""},{"name":"Disney/Little Blue State Park","location":"Mayes","state":"Oklahoma","country":"USA","imageURL":null,"remarks":""},{"name":"Fort Cobb State Park","location":"Caddo","state":"Oklahoma","country":"USA","imageURL":null,"remarks":""},{"name":"Foss State Park","location":"Washita","state":"Oklahoma","country":"USA","imageURL":null,"remarks":""},{"name":"Gloss Mountain State Park","location":"Major","state":"Oklahoma","country":"USA","imageURL":null,"remarks":""},{"name":"Great Plains State Park","location":"Kiowa","state":"Oklahoma","country":"USA","imageURL":null,"remarks":""},{"name":"Great Salt Plains State Park","location":"Alfalfa","state":"Oklahoma","country":"USA","imageURL":null,"remarks":""},{"name":"Greenleaf State Park","location":"Muskogee","state":"Oklahoma","country":"USA","imageURL":null,"remarks":""},{"name":"Honey Creek State Park","location":"Delaware","state":"Oklahoma","country":"USA","imageURL":null,"remarks":"Now known as the Honey Creek Area at Grand Lake State Park."},{"name":"Hugo Lake State Park","location":"Choctaw","state":"Oklahoma","country":"USA","imageURL":null,"remarks":"Originally built in 1974 as Kiamichi Park, renamed Hugo Lake State Park in 2002."},{"name":"Keystone State Park","location":"Tulsa","state":"Oklahoma","country":"USA","imageURL":null,"remarks":""},{"name":"Lake Eufaula State Park","location":"McIntosh","state":"Oklahoma","country":"USA","imageURL":null,"remarks":""},{"name":"Lake Murray State Park","location":"Carter, Love","state":"Oklahoma","country":"USA","imageURL":null,"remarks":"Added to National Register of Historic Places in 2001."},{"name":"Lake Texoma State Park","location":"Marshall","state":"Oklahoma","country":"USA","imageURL":null,"remarks":""},{"name":"Lake Thunderbird State Park","location":"Cleveland","state":"Oklahoma","country":"USA","imageURL":null,"remarks":""},{"name":"Lake Wister State Park","location":"Le Flore","state":"Oklahoma","country":"USA","imageURL":null,"remarks":""},{"name":"Little Sahara State Park","location":"Woods","state":"Oklahoma","country":"USA","imageURL":null,"remarks":""},{"name":"McGee Creek State Park","location":"Atoka","state":"Oklahoma","country":"USA","imageURL":null,"remarks":""},{"name":"Natural Falls State Park","location":"Delaware","state":"Oklahoma","country":"USA","imageURL":null,"remarks":""},{"name":"Osage Hills State Park","location":"Osage","state":"Oklahoma","country":"USA","imageURL":null,"remarks":""},{"name":"Quartz Mountain State Park","location":"Greer","state":"Oklahoma","country":"USA","imageURL":null,"remarks":""},{"name":"Raymond Gary State Park","location":"Choctaw","state":"Oklahoma","country":"USA","imageURL":null,"remarks":""},{"name":"Robbers Cave State Park","location":"Latimer","state":"Oklahoma","country":"USA","imageURL":null,"remarks":""},{"name":"Roman Nose State Park","location":"Blaine","state":"Oklahoma","country":"USA","imageURL":null,"remarks":""},{"name":"Sequoyah Bay State Park","location":"Wagoner","state":"Oklahoma","country":"USA","imageURL":null,"remarks":""},{"name":"Sequoyah/Western Hills State Park","location":"Cherokee","state":"Oklahoma","country":"USA","imageURL":null,"remarks":""},{"name":"Spavinaw State Park","location":"Mayes","state":"Oklahoma","country":"USA","imageURL":null,"remarks":"Now known as the Spavinaw Area at Grand Lake State Park."},{"name":"Talimena State Park","location":"Le Flore","state":"Oklahoma","country":"USA","imageURL":null,"remarks":""},{"name":"Tenkiller State Park","location":"Sequoyah","state":"Oklahoma","country":"USA","imageURL":null,"remarks":""},{"name":"Twin Bridges State Park","location":"Ottawa","state":"Oklahoma","country":"USA","imageURL":null,"remarks":"Now known as the Twin Bridges Area at Grand Lake State Park."}]