[{"name":"Goose Lake State Recreation Area","location":"Southern Oregon","state":"Oregon","country":"USA","imageURL":null,"remarks":null},{"name":"Frenchglen Hotel State Heritage Site","location":"Eastern Oregon","state":"Oregon","country":"USA","imageURL":null,"remarks":null},{"name":"Ontario State Recreation Site","location":"Eastern Oregon","state":"Oregon","country":"USA","imageURL":null,"remarks":null},{"name":"Farewell Bend State Recreation Area","location":"Eastern Oregon","state":"Oregon","country":"USA","imageURL":null,"remarks":null},{"name":"Kam Wah Chung State Heritage Site","location":"Eastern Oregon","state":"Oregon","country":"USA","imageURL":null,"remarks":null},{"name":"Unity Forest State Scenic Corridor","location":"Eastern Oregon","state":"Oregon","country":"USA","imageURL":null,"remarks":null},{"name":"Unity Lake State Recreation Site","location":"Eastern Oregon","state":"Oregon","country":"USA","imageURL":null,"remarks":null},{"name":"Clyde Holliday State Recreation Site","location":"Eastern Oregon","state":"Oregon","country":"USA","imageURL":null,"remarks":null},{"name":"Succor Creek State Natural Area","location":"Eastern Oregon","state":"Oregon","country":"USA","imageURL":null,"remarks":null},{"name":"Lake Owyhee State Park","location":"Eastern Oregon","state":"Oregon","country":"USA","imageURL":null,"remarks":null},{"name":"Catherine Creek State Park","location":"Eastern Oregon","state":"Oregon","country":"USA","imageURL":null,"remarks":null},{"name":"Hat Rock State Park","location":"Eastern Oregon","state":"Oregon","country":"USA","imageURL":null,"remarks":null},{"name":"Hilgard Junction State Recreation Area","location":"Eastern Oregon","state":"Oregon","country":"USA","imageURL":null,"remarks":null},{"name":"Red Bridge State Wayside","location":"Eastern Oregon","state":"Oregon","country":"USA","imageURL":null,"remarks":null},{"name":"Ukiah–Dale Forest State Scenic Corridor","location":"Eastern Oregon","state":"Oregon","country":"USA","imageURL":null,"remarks":null},{"name":"Emigrant Springs State Heritage Area","location":"Eastern Oregon","state":"Oregon","country":"USA","imageURL":null,"remarks":null},{"name":"Wallowa Lake Highway Forest State Scenic Corridor","location":"Eastern Oregon","state":"Oregon","country":"USA","imageURL":null,"remarks":null},{"name":"Wallowa River Rest Area","location":"Eastern Oregon","state":"Oregon","country":"USA","imageURL":null,"remarks":null},{"name":"Minam State Recreation Area","location":"Eastern Oregon","state":"Oregon","country":"USA","imageURL":null,"remarks":null},{"name":"Wallowa Lake State Recreation Area","location":"Eastern Oregon","state":"Oregon","country":"USA","imageURL":null,"remarks":null},{"name":"Iwetemlaykin State Heritage Site","location":"Eastern Oregon","state":"Oregon","country":"USA","imageURL":null,"remarks":null},{"name":"Casey State Recreation Site","location":"Southern Oregon","state":"Oregon","country":"USA","imageURL":null,"remarks":null},{"name":"Prospect State Scenic Viewpoint","location":"Southern Oregon","state":"Oregon","country":"USA","imageURL":null,"remarks":null},{"name":"Joseph H. Stewart State Recreation Area","location":"Southern Oregon","state":"Oregon","country":"USA","imageURL":null,"remarks":null},{"name":"The Cove Palisades State Park","location":"Central Oregon","state":"Oregon","country":"USA","imageURL":null,"remarks":null},{"name":"Jasper Point Campground","location":"Central Oregon","state":"Oregon","country":"USA","imageURL":null,"remarks":null},{"name":"Prineville Reservoir State Park","location":"Central Oregon","state":"Oregon","country":"USA","imageURL":null,"remarks":null},{"name":"Heritage Landing (Deschutes)","location":"Portland/Columbia Gorge","state":"Oregon","country":"USA","imageURL":null,"remarks":null},{"name":"White River Falls State Park","location":"Portland/Columbia Gorge","state":"Oregon","country":"USA","imageURL":null,"remarks":null},{"name":"Deschutes River State Recreation Area","location":"Portland/Columbia Gorge","state":"Oregon","country":"USA","imageURL":null,"remarks":null},{"name":"Cline Falls State Scenic Viewpoint","location":"Central Oregon","state":"Oregon","country":"USA","imageURL":null,"remarks":null},{"name":"Fort Rock State Natural Area","location":"Central Oregon","state":"Oregon","country":"USA","imageURL":null,"remarks":null},{"name":"La Pine State Park","location":"Central Oregon","state":"Oregon","country":"USA","imageURL":null,"remarks":null},{"name":"Pilot Butte State Scenic Viewpoint","location":"Central Oregon","state":"Oregon","country":"USA","imageURL":null,"remarks":null},{"name":"Tumalo State Park","location":"Central Oregon","state":"Oregon","country":"USA","imageURL":null,"remarks":null},{"name":"Peter Skene Ogden State Scenic Viewpoint","location":"Central Oregon","state":"Oregon","country":"USA","imageURL":null,"remarks":null},{"name":"Smith Rock State Park","location":"Central Oregon","state":"Oregon","country":"USA","imageURL":null,"remarks":null},{"name":"Booth State Scenic Corridor","location":"Southern Oregon","state":"Oregon","country":"USA","imageURL":null,"remarks":null},{"name":"Chandler State Wayside","location":"Southern Oregon","state":"Oregon","country":"USA","imageURL":null,"remarks":null},{"name":"Geisel Monument State Heritage Site","location":"South Coast","state":"Oregon","country":"USA","imageURL":null,"remarks":null},{"name":"Humbug Mountain State Park","location":"South Coast","state":"Oregon","country":"USA","imageURL":null,"remarks":null},{"name":"Otter Point State Recreation Site","location":"South Coast","state":"Oregon","country":"USA","imageURL":null,"remarks":null},{"name":"Paradise Point State Recreation Site","location":"South Coast","state":"Oregon","country":"USA","imageURL":null,"remarks":null},{"name":"Port Orford Heads State Park","location":"South Coast","state":"Oregon","country":"USA","imageURL":null,"remarks":null},{"name":"Cape Blanco State Park","location":"South Coast","state":"Oregon","country":"USA","imageURL":null,"remarks":null},{"name":"Bandon State Natural Area","location":"South Coast","state":"Oregon","country":"USA","imageURL":null,"remarks":null},{"name":"Coquille Myrtle Grove State Natural Site","location":"South Coast","state":"Oregon","country":"USA","imageURL":null,"remarks":null},{"name":"Face Rock State Scenic Viewpoint","location":"South Coast","state":"Oregon","country":"USA","imageURL":null,"remarks":null},{"name":"Hoffman Memorial State Wayside","location":"South Coast","state":"Oregon","country":"USA","imageURL":null,"remarks":null},{"name":"Seven Devils State Recreation Site","location":"South Coast","state":"Oregon","country":"USA","imageURL":null,"remarks":null},{"name":"Bullards Beach State Park","location":"South Coast","state":"Oregon","country":"USA","imageURL":null,"remarks":null},{"name":"Alfred A. Loeb State Park","location":"South Coast","state":"Oregon","country":"USA","imageURL":null,"remarks":null},{"name":"Cape Sebastian State Scenic Corridor","location":"South Coast","state":"Oregon","country":"USA","imageURL":null,"remarks":null},{"name":"Crissey Field State Recreation Site","location":"South Coast","state":"Oregon","country":"USA","imageURL":null,"remarks":null},{"name":"McVay Rock State Recreation Site","location":"South Coast","state":"Oregon","country":"USA","imageURL":null,"remarks":null},{"name":"Pistol River State Scenic Viewpoint","location":"South Coast","state":"Oregon","country":"USA","imageURL":null,"remarks":null},{"name":"Samuel H. Boardman State Scenic Corridor","location":"South Coast","state":"Oregon","country":"USA","imageURL":null,"remarks":null},{"name":"Winchuck State Recreation Site","location":"South Coast","state":"Oregon","country":"USA","imageURL":null,"remarks":null},{"name":"Harris Beach State Recreation Area","location":"South Coast","state":"Oregon","country":"USA","imageURL":null,"remarks":null},{"name":"Alderwood State Wayside","location":"Willamette Valley","state":"Oregon","country":"USA","imageURL":null,"remarks":null},{"name":"Elijah Bristow State Park","location":"Willamette Valley","state":"Oregon","country":"USA","imageURL":null,"remarks":null},{"name":"Washburne State Wayside","location":"Willamette Valley","state":"Oregon","country":"USA","imageURL":null,"remarks":null},{"name":"Mongold Day-Use Area","location":"Willamette Valley","state":"Oregon","country":"USA","imageURL":null,"remarks":null},{"name":"North Santiam State Recreation Area","location":"Willamette Valley","state":"Oregon","country":"USA","imageURL":null,"remarks":null},{"name":"Detroit Lake State Recreation Area","location":"Willamette Valley","state":"Oregon","country":"USA","imageURL":null,"remarks":null},{"name":"Cape Arago State Park","location":"South Coast","state":"Oregon","country":"USA","imageURL":null,"remarks":null},{"name":"Golden and Silver Falls State Natural Area","location":"South Coast","state":"Oregon","country":"USA","imageURL":null,"remarks":null},{"name":"Shore Acres State Park","location":"South Coast","state":"Oregon","country":"USA","imageURL":null,"remarks":null},{"name":"William M. Tugman State Park","location":"South Coast","state":"Oregon","country":"USA","imageURL":null,"remarks":null},{"name":"Sunset Bay State Park","location":"South Coast","state":"Oregon","country":"USA","imageURL":null,"remarks":null},{"name":"Illinois River Forks State Park","location":"Southern Oregon","state":"Oregon","country":"USA","imageURL":null,"remarks":null},{"name":"TouVelle State Recreation Site","location":"Southern Oregon","state":"Oregon","country":"USA","imageURL":null,"remarks":null},{"name":"Tub Springs State Wayside","location":"Southern Oregon","state":"Oregon","country":"USA","imageURL":null,"remarks":null},{"name":"Wolf Creek Inn State Heritage Site","location":"Southern Oregon","state":"Oregon","country":"USA","imageURL":null,"remarks":null},{"name":"Valley of the Rogue State Recreation Area","location":"Southern Oregon","state":"Oregon","country":"USA","imageURL":null,"remarks":null},{"name":"Bald Peak State Scenic Viewpoint","location":"Portland/Columbia Gorge","state":"Oregon","country":"USA","imageURL":null,"remarks":null},{"name":"Molalla River State Park","location":"Portland/Columbia Gorge","state":"Oregon","country":"USA","imageURL":null,"remarks":null},{"name":"Champoeg State Heritage Area","location":"Willamette Valley","state":"Oregon","country":"USA","imageURL":null,"remarks":null},{"name":"Beaver Creek State Natural Area","location":"Central Coast","state":"Oregon","country":"USA","imageURL":null,"remarks":null},{"name":"Bolon Island Tideways State Scenic Corridor","location":"Central Coast","state":"Oregon","country":"USA","imageURL":null,"remarks":null},{"name":"Darlingtonia State Natural Site","location":"Central Coast","state":"Oregon","country":"USA","imageURL":null,"remarks":null},{"name":"Governor Patterson Memorial State Recreation Site","location":"Central Coast","state":"Oregon","country":"USA","imageURL":null,"remarks":null},{"name":"Umpqua Lighthouse State Park","location":"Central Coast","state":"Oregon","country":"USA","imageURL":null,"remarks":null},{"name":"Beachside State Recreation Site","location":"Central Coast","state":"Oregon","country":"USA","imageURL":null,"remarks":null},{"name":"Carl G. Washburne Memorial State Park","location":"Central Coast","state":"Oregon","country":"USA","imageURL":null,"remarks":null},{"name":"Heceta Head Lighthouse State Scenic Viewpoint","location":"Central Coast","state":"Oregon","country":"USA","imageURL":null,"remarks":null},{"name":"Muriel O. Ponsler Memorial State Scenic Viewpoint","location":"Central Coast","state":"Oregon","country":"USA","imageURL":null,"remarks":null},{"name":"Neptune State Scenic Viewpoint","location":"Central Coast","state":"Oregon","country":"USA","imageURL":null,"remarks":null},{"name":"Smelt Sands State Recreation Site","location":"Central Coast","state":"Oregon","country":"USA","imageURL":null,"remarks":null},{"name":"Tokatee Klootchman State Natural Site","location":"Central Coast","state":"Oregon","country":"USA","imageURL":null,"remarks":null},{"name":"Stonefield Beach State Recreation Site","location":"Central Coast","state":"Oregon","country":"USA","imageURL":null,"remarks":null},{"name":"W. B. Nelson State Recreation Site","location":"Central Coast","state":"Oregon","country":"USA","imageURL":null,"remarks":null},{"name":"Yachats Ocean Road State Natural Site","location":"Central Coast","state":"Oregon","country":"USA","imageURL":null,"remarks":null},{"name":"Yachats State Recreation Area","location":"Central Coast","state":"Oregon","country":"USA","imageURL":null,"remarks":null},{"name":"Jessie M. Honeyman Memorial State Park","location":"Central Coast","state":"Oregon","country":"USA","imageURL":null,"remarks":null},{"name":"Erratic Rock State Natural Site","location":"Willamette Valley","state":"Oregon","country":"USA","imageURL":null,"remarks":null},{"name":"Holman State Wayside","location":"Willamette Valley","state":"Oregon","country":"USA","imageURL":null,"remarks":null},{"name":"Maud Williamson State Recreation Site","location":"Willamette Valley","state":"Oregon","country":"USA","imageURL":null,"remarks":null},{"name":"Sarah Helmick State Recreation Site","location":"Willamette Valley","state":"Oregon","country":"USA","imageURL":null,"remarks":null},{"name":"Willamette Mission State Park","location":"Willamette Valley","state":"Oregon","country":"USA","imageURL":null,"remarks":null},{"name":"Bonnie Lure State Recreation Area","location":"Portland/Columbia Gorge","state":"Oregon","country":"USA","imageURL":null,"remarks":null},{"name":"Mary S. Young State Recreation Area","location":"Portland/Columbia Gorge","state":"Oregon","country":"USA","imageURL":null,"remarks":null},{"name":"Milo McIver State Park","location":"Portland/Columbia Gorge","state":"Oregon","country":"USA","imageURL":null,"remarks":null},{"name":"Tryon Creek State Natural Area","location":"Portland/Columbia Gorge","state":"Oregon","country":"USA","imageURL":null,"remarks":null},{"name":"Banks–Vernonia State Trail","location":"Portland/Columbia Gorge","state":"Oregon","country":"USA","imageURL":null,"remarks":null},{"name":"Ainsworth State Park","location":"Portland/Columbia Gorge","state":"Oregon","country":"USA","imageURL":null,"remarks":null},{"name":"Benson State Recreation Area","location":"Portland/Columbia Gorge","state":"Oregon","country":"USA","imageURL":null,"remarks":null},{"name":"Bridal Veil Falls State Scenic Viewpoint","location":"Portland/Columbia Gorge","state":"Oregon","country":"USA","imageURL":null,"remarks":null},{"name":"Crown Point State Scenic Corridor","location":"Portland/Columbia Gorge","state":"Oregon","country":"USA","imageURL":null,"remarks":null},{"name":"Dabney State Recreation Area","location":"Portland/Columbia Gorge","state":"Oregon","country":"USA","imageURL":null,"remarks":null},{"name":"George W. Joseph State Natural Area (accessible from Guy W. Talbot State Park)","location":"Portland/Columbia Gorge","state":"Oregon","country":"USA","imageURL":null,"remarks":null},{"name":"Guy W. Talbot State Park","location":"Portland/Columbia Gorge","state":"Oregon","country":"USA","imageURL":null,"remarks":null},{"name":"Historic Columbia River Highway State Trail","location":"Portland/Columbia Gorge","state":"Oregon","country":"USA","imageURL":null,"remarks":null},{"name":"John B. Yeon State Scenic Corridor","location":"Portland/Columbia Gorge","state":"Oregon","country":"USA","imageURL":null,"remarks":null},{"name":"Koberg Beach State Recreation Site","location":"Portland/Columbia Gorge","state":"Oregon","country":"USA","imageURL":null,"remarks":null},{"name":"Lewis and Clark State Recreation Site","location":"Portland/Columbia Gorge","state":"Oregon","country":"USA","imageURL":null,"remarks":null},{"name":"Mayer State Park","location":"Portland/Columbia Gorge","state":"Oregon","country":"USA","imageURL":null,"remarks":null},{"name":"Memaloose State Park","location":"Portland/Columbia Gorge","state":"Oregon","country":"USA","imageURL":null,"remarks":null},{"name":"Portland Women's Forum State Scenic Viewpoint","location":"Portland/Columbia Gorge","state":"Oregon","country":"USA","imageURL":null,"remarks":null},{"name":"Seneca Fouts Memorial State Natural Area","location":"Portland/Columbia Gorge","state":"Oregon","country":"USA","imageURL":null,"remarks":null},{"name":"Shepperd's Dell State Natural Area","location":"Portland/Columbia Gorge","state":"Oregon","country":"USA","imageURL":null,"remarks":null},{"name":"Sheridan State Scenic Corridor","location":"Portland/Columbia Gorge","state":"Oregon","country":"USA","imageURL":null,"remarks":null},{"name":"Starvation Creek State Park","location":"Portland/Columbia Gorge","state":"Oregon","country":"USA","imageURL":null,"remarks":null},{"name":"Viento State Park","location":"Portland/Columbia Gorge","state":"Oregon","country":"USA","imageURL":null,"remarks":null},{"name":"Vinzenz Lausmann Memorial State Natural Area","location":"Portland/Columbia Gorge","state":"Oregon","country":"USA","imageURL":null,"remarks":null},{"name":"Wygant State Natural Area","location":"Portland/Columbia Gorge","state":"Oregon","country":"USA","imageURL":null,"remarks":null},{"name":"Rooster Rock State Park","location":"Portland/Columbia Gorge","state":"Oregon","country":"USA","imageURL":null,"remarks":null},{"name":"Bradley State Scenic Viewpoint","location":"North Coast","state":"Oregon","country":"USA","imageURL":null,"remarks":null},{"name":"Del Rey Beach State Recreation Site","location":"North Coast","state":"Oregon","country":"USA","imageURL":null,"remarks":null},{"name":"Fort Stevens State Park","location":"North Coast","state":"Oregon","country":"USA","imageURL":null,"remarks":null},{"name":"Cape Kiwanda State Natural Area","location":"North Coast","state":"Oregon","country":"USA","imageURL":null,"remarks":null},{"name":"Cape Meares State Scenic Viewpoint","location":"North Coast","state":"Oregon","country":"USA","imageURL":null,"remarks":null},{"name":"Oceanside Beach State Recreation Site","location":"North Coast","state":"Oregon","country":"USA","imageURL":null,"remarks":null},{"name":"Bob Straub State Park","location":"North Coast","state":"Oregon","country":"USA","imageURL":null,"remarks":null},{"name":"Cape Lookout State Park","location":"North Coast","state":"Oregon","country":"USA","imageURL":null,"remarks":null},{"name":"Arcadia Beach State Recreation Site","location":"North Coast","state":"Oregon","country":"USA","imageURL":null,"remarks":null},{"name":"Ecola State Park","location":"North Coast","state":"Oregon","country":"USA","imageURL":null,"remarks":null},{"name":"Golden State Heritage Site","location":"Southern Oregon","state":"Oregon","country":"USA","imageURL":null,"remarks":null},{"name":"Hug Point State Recreation Site","location":"North Coast","state":"Oregon","country":"USA","imageURL":null,"remarks":null},{"name":"Manhattan Beach State Recreation Site","location":"North Coast","state":"Oregon","country":"USA","imageURL":null,"remarks":null},{"name":"Oswald West State Park","location":"North Coast","state":"Oregon","country":"USA","imageURL":null,"remarks":null},{"name":"Saddle Mountain State Natural Area","location":"North Coast","state":"Oregon","country":"USA","imageURL":null,"remarks":null},{"name":"Tolovana Beach State Recreation Site","location":"North Coast","state":"Oregon","country":"USA","imageURL":null,"remarks":null},{"name":"Nehalem Bay State Park","location":"North Coast","state":"Oregon","country":"USA","imageURL":null,"remarks":null},{"name":"Alsea Bay Historic Interpretive Center","location":"Central Coast","state":"Oregon","country":"USA","imageURL":null,"remarks":null},{"name":"Driftwood Beach State Recreation Site","location":"Central Coast","state":"Oregon","country":"USA","imageURL":null,"remarks":null},{"name":"Lost Creek State Recreation Site","location":"Central Coast","state":"Oregon","country":"USA","imageURL":null,"remarks":null},{"name":"Ona Beach State Park","location":"Central Coast","state":"Oregon","country":"USA","imageURL":null,"remarks":null},{"name":"Seal Rock State Recreation Site","location":"Central Coast","state":"Oregon","country":"USA","imageURL":null,"remarks":null},{"name":"Yaquina Bay State Recreation Site","location":"Central Coast","state":"Oregon","country":"USA","imageURL":null,"remarks":null},{"name":"South Beach State Park","location":"Central Coast","state":"Oregon","country":"USA","imageURL":null,"remarks":null},{"name":"Cascadia State Park","location":"Willamette Valley","state":"Oregon","country":"USA","imageURL":null,"remarks":null},{"name":"Silver Falls State Park","location":"Willamette Valley","state":"Oregon","country":"USA","imageURL":null,"remarks":null},{"name":"Agate Beach State Recreation Site","location":"Central Coast","state":"Oregon","country":"USA","imageURL":null,"remarks":null},{"name":"Boiler Bay State Scenic Viewpoint","location":"Central Coast","state":"Oregon","country":"USA","imageURL":null,"remarks":null},{"name":"D River State Recreation Site","location":"Central Coast","state":"Oregon","country":"USA","imageURL":null,"remarks":null},{"name":"Devils Lake State Recreation Area","location":"Central Coast","state":"Oregon","country":"USA","imageURL":null,"remarks":null},{"name":"Devils Punch Bowl State Natural Area","location":"Central Coast","state":"Oregon","country":"USA","imageURL":null,"remarks":null},{"name":"Ellmaker State Wayside","location":"Central Coast","state":"Oregon","country":"USA","imageURL":null,"remarks":null},{"name":"Fogarty Creek State Recreation Area","location":"Central Coast","state":"Oregon","country":"USA","imageURL":null,"remarks":null},{"name":"Gleneden Beach State Recreation Site","location":"Central Coast","state":"Oregon","country":"USA","imageURL":null,"remarks":null},{"name":"H. B. Van Duzer Forest State Scenic Corridor","location":"North Coast","state":"Oregon","country":"USA","imageURL":null,"remarks":null},{"name":"Neskowin Beach State Recreation Site","location":"Central Coast","state":"Oregon","country":"USA","imageURL":null,"remarks":null},{"name":"Otter Crest State Scenic Viewpoint","location":"Central Coast","state":"Oregon","country":"USA","imageURL":null,"remarks":null},{"name":"Roads End State Recreation Site","location":"Central Coast","state":"Oregon","country":"USA","imageURL":null,"remarks":null},{"name":"Beverly Beach State Park","location":"Central Coast","state":"Oregon","country":"USA","imageURL":null,"remarks":null},{"name":"Collier Memorial State Park","location":"Southern Oregon","state":"Oregon","country":"USA","imageURL":null,"remarks":null},{"name":"Jackson F. Kimball State Recreation Site","location":"Southern Oregon","state":"Oregon","country":"USA","imageURL":null,"remarks":null},{"name":"OC&E Woods Line State Trail","location":"Southern Oregon","state":"Oregon","country":"USA","imageURL":null,"remarks":null},{"name":"South Jetty (South Beach)","location":"Central Coast","state":"Oregon","country":"USA","imageURL":null,"remarks":null},{"name":"Blue Mountain Forest State Scenic Corridor","location":"Eastern Oregon","state":"Oregon","country":"USA","imageURL":null,"remarks":null},{"name":"Battle Mountain Forest State Scenic Corridor","location":"Eastern Oregon","state":"Oregon","country":"USA","imageURL":null,"remarks":null},{"name":"Sumpter Valley Dredge State Heritage Area","location":"Eastern Oregon","state":"Oregon","country":"USA","imageURL":null,"remarks":null},{"name":"Fall Creek State Recreation Site","location":"Willamette Valley","state":"Oregon","country":"USA","imageURL":null,"remarks":null},{"name":"Lowell State Recreation Site","location":"Willamette Valley","state":"Oregon","country":"USA","imageURL":null,"remarks":null},{"name":"Jasper State Recreation Site","location":"Willamette Valley","state":"Oregon","country":"USA","imageURL":null,"remarks":null},{"name":"Dexter State Recreation Site","location":"Willamette Valley","state":"Oregon","country":"USA","imageURL":null,"remarks":null},{"name":"Munson Creek Falls State Natural Site","location":"North Coast","state":"Oregon","country":"USA","imageURL":null,"remarks":null},{"name":"Willamette Stone State Heritage Site","location":"Portland/Columbia Gorge","state":"Oregon","country":"USA","imageURL":null,"remarks":null},{"name":"Umpqua State Scenic Corridor","location":"Central Coast","state":"Oregon","country":"USA","imageURL":null,"remarks":null},{"name":"Clay Myers State Natural Area at Whalen Island","location":"North Coast","state":"Oregon","country":"USA","imageURL":null,"remarks":null},{"name":"Fort Rock Cave  (Near Fort Rock State Natural Area)","location":"Central Oregon","state":"Oregon","country":"USA","imageURL":null,"remarks":null},{"name":"Government Island State Recreation Area","location":"Portland/Columbia Gorge","state":"Oregon","country":"USA","imageURL":null,"remarks":null},{"name":"Sunset Beach State Recreation Site","location":"North Coast","state":"Oregon","country":"USA","imageURL":null,"remarks":null},{"name":"Whale Watching Center","location":"Central Coast","state":"Oregon","country":"USA","imageURL":null,"remarks":null},{"name":"Rocky Creek State Scenic Viewpoint","location":"Central Coast","state":"Oregon","country":"USA","imageURL":null,"remarks":null},{"name":"Fort Yamhill State Heritage Area","location":"Willamette Valley","state":"Oregon","country":"USA","imageURL":null,"remarks":null},{"name":"L. L. \"Stub\" Stewart State Park","location":"Portland/Columbia Gorge","state":"Oregon","country":"USA","imageURL":null,"remarks":null},{"name":"Thompson's Mills State Heritage Site","location":"Willamette Valley","state":"Oregon","country":"USA","imageURL":null,"remarks":null},{"name":"State Capitol State Park","location":"Willamette Valley","state":"Oregon","country":"USA","imageURL":null,"remarks":null},{"name":"Arizona Beach State Recreation Site","location":"South Coast","state":"Oregon","country":"USA","imageURL":null,"remarks":null},{"name":"Bates State Park","location":"Eastern Oregon","state":"Oregon","country":"USA","imageURL":null,"remarks":null},{"name":"Ochoco State Scenic Viewpoint","location":"Central Oregon","state":"Oregon","country":"USA","imageURL":null,"remarks":null},{"name":"Dyer State Wayside","location":"Eastern Oregon","state":"Oregon","country":"USA","imageURL":null,"remarks":null},{"name":"Pete French Round Barn State Heritage Site","location":"Eastern Oregon","state":"Oregon","country":"USA","imageURL":null,"remarks":null},{"name":"Cottonwood Canyon State Park","location":"Central Oregon","state":"Oregon","country":"USA","imageURL":null,"remarks":null},{"name":"Sitka Sedge State Natural Area","location":"North Coast","state":"Oregon","country":"USA","imageURL":null,"remarks":null}]