[{"name":"Beavertail State Park","location":"Newport","state":"Rhode Island","country":"USA","imageURL":null,"remarks":""},{"name":"Blackstone River Bikeway State Park","location":"Providence","state":"Rhode Island","country":"USA","imageURL":null,"remarks":""},{"name":"Brenton Point State Park","location":"Newport","state":"Rhode Island","country":"USA","imageURL":null,"remarks":""},{"name":"Burlingame State Park","location":"Washington","state":"Rhode Island","country":"USA","imageURL":null,"remarks":""},{"name":"Colt State Park","location":"Bristol","state":"Rhode Island","country":"USA","imageURL":null,"remarks":""},{"name":"Fishermen's Memorial State Park","location":"Washington","state":"Rhode Island","country":"USA","imageURL":null,"remarks":""},{"name":"Fort Adams State Park","location":"Newport","state":"Rhode Island","country":"USA","imageURL":null,"remarks":""},{"name":"Fort Wetherill State Park","location":"Newport","state":"Rhode Island","country":"USA","imageURL":null,"remarks":""},{"name":"Goddard Memorial State Park","location":"Kent","state":"Rhode Island","country":"USA","imageURL":null,"remarks":""},{"name":"Haines Memorial State Park","location":"Bristol","state":"Rhode Island","country":"USA","imageURL":null,"remarks":""},{"name":"Lincoln Woods State Park","location":"Providence","state":"Rhode Island","country":"USA","imageURL":null,"remarks":""},{"name":"Pulaski State Park","location":"Providence","state":"Rhode Island","country":"USA","imageURL":null,"remarks":""},{"name":"Rocky Point State Park","location":"Kent","state":"Rhode Island","country":"USA","imageURL":null,"remarks":""},{"name":"Snake Den State Park","location":"Providence","state":"Rhode Island","country":"USA","imageURL":null,"remarks":""},{"name":"World War II Memorial State Park","location":"Providence","state":"Rhode Island","country":"USA","imageURL":null,"remarks":""}]