[{"name":"Adams Homestead and Nature Preserve","location":"Union","state":"South Dakota","country":"USA","imageURL":null,"remarks":"1997"},{"name":"Angostura Recreation Area","location":"Fall River","state":"South Dakota","country":"USA","imageURL":null,"remarks":"1954"},{"name":"Bear Butte State Park","location":"Meade","state":"South Dakota","country":"USA","imageURL":null,"remarks":"1961"},{"name":"Beaver Creek Nature Area","location":"Minnehaha","state":"South Dakota","country":"USA","imageURL":null,"remarks":"1967"},{"name":"Big Sioux Recreation Area","location":"Minnehaha","state":"South Dakota","country":"USA","imageURL":null,"remarks":"1978"},{"name":"Big Stone Island Nature Area","location":"Roberts","state":"South Dakota","country":"USA","imageURL":null,"remarks":"1976"},{"name":"Burke Lake Recreation Area","location":"Gregory","state":"South Dakota","country":"USA","imageURL":null,"remarks":"1947"},{"name":"Buryanek Recreation Area","location":"Gregory","state":"South Dakota","country":"USA","imageURL":null,"remarks":"1983"},{"name":"Chief White Crane Recreation Area","location":"Yankton","state":"South Dakota","country":"USA","imageURL":null,"remarks":"2001"},{"name":"Cow Creek Recreation Area","location":"Sully","state":"South Dakota","country":"USA","imageURL":null,"remarks":"2001"},{"name":"Custer State Park","location":"Custer","state":"South Dakota","country":"USA","imageURL":null,"remarks":"1919"},{"name":"Farm Island Recreation Area","location":"Hughes","state":"South Dakota","country":"USA","imageURL":null,"remarks":"1946"},{"name":"Fisher Grove State Park","location":"Spink","state":"South Dakota","country":"USA","imageURL":null,"remarks":"1946"},{"name":"Fort Sisseton Historic State Park","location":"Marshall","state":"South Dakota","country":"USA","imageURL":null,"remarks":"1959"},{"name":"George S. Mickelson Trail","location":"Lawrence, Pennington, Custer, Fall River","state":"South Dakota","country":"USA","imageURL":null,"remarks":"1998"},{"name":"Good Earth State Park at Blood Run","location":"Lincoln","state":"South Dakota","country":"USA","imageURL":null,"remarks":"2013"},{"name":"Hartford Beach State Park","location":"Roberts","state":"South Dakota","country":"USA","imageURL":null,"remarks":"1945"},{"name":"Indian Creek Recreation Area","location":"Walworth","state":"South Dakota","country":"USA","imageURL":null,"remarks":"2001"},{"name":"LaFramboise Island Nature Area","location":"Hughes","state":"South Dakota","country":"USA","imageURL":null,"remarks":"2002"},{"name":"Lake Alvin Recreation Area","location":"Lincoln","state":"South Dakota","country":"USA","imageURL":null,"remarks":"1957"},{"name":"Lake Cochrane Recreation Area","location":"Deuel","state":"South Dakota","country":"USA","imageURL":null,"remarks":"1974"},{"name":"Lake Herman State Park","location":"Lake","state":"South Dakota","country":"USA","imageURL":null,"remarks":"1946"},{"name":"Lake Hiddenwood Recreation Area","location":"Walworth","state":"South Dakota","country":"USA","imageURL":null,"remarks":"1947"},{"name":"Lake Louise Recreation Area","location":"Hand","state":"South Dakota","country":"USA","imageURL":null,"remarks":"1945"},{"name":"Lake Poinsett Recreation Area","location":"Brookings","state":"South Dakota","country":"USA","imageURL":null,"remarks":"1976"},{"name":"Lake Thompson Recreation Area","location":"Kingsbury","state":"South Dakota","country":"USA","imageURL":null,"remarks":"1998"},{"name":"Lake Vermillion Recreation Area","location":"McCook","state":"South Dakota","country":"USA","imageURL":null,"remarks":"1967"},{"name":"Lewis & Clark Recreation Area","location":"Yankton","state":"South Dakota","country":"USA","imageURL":null,"remarks":"1966"},{"name":"Little Moreau Recreation Area","location":"Dewey","state":"South Dakota","country":"USA","imageURL":null,"remarks":"1962"},{"name":"Llewellyn Johns Recreation Area","location":"Perkins","state":"South Dakota","country":"USA","imageURL":null,"remarks":"1945"},{"name":"Mina Lake Recreation Area","location":"Edmonds","state":"South Dakota","country":"USA","imageURL":null,"remarks":"1950"},{"name":"Newton Hills State Park","location":"Lincoln","state":"South Dakota","country":"USA","imageURL":null,"remarks":"1949"},{"name":"North Point Recreation Area","location":"Charles Mix","state":"South Dakota","country":"USA","imageURL":null,"remarks":"2001"},{"name":"North Wheeler Recreation Area","location":"Charles Mix","state":"South Dakota","country":"USA","imageURL":null,"remarks":"2001"},{"name":"Oahe Downstream Recreation Area","location":"Stanley","state":"South Dakota","country":"USA","imageURL":null,"remarks":"2002"},{"name":"Oakwood Lakes State Park","location":"Brookings","state":"South Dakota","country":"USA","imageURL":null,"remarks":"1945"},{"name":"Okobojo Point Recreation Area","location":"Sully","state":"South Dakota","country":"USA","imageURL":null,"remarks":"2001"},{"name":"Palisades State Park","location":"Minnehaha","state":"South Dakota","country":"USA","imageURL":null,"remarks":"1972"},{"name":"Pease Creek Recreation Area","location":"Charles Mix","state":"South Dakota","country":"USA","imageURL":null,"remarks":"2001"},{"name":"Pelican Lake Recreation Area","location":"Codington","state":"South Dakota","country":"USA","imageURL":null,"remarks":"1978"},{"name":"Pickerel Lake Recreation Area","location":"Day","state":"South Dakota","country":"USA","imageURL":null,"remarks":"1949"},{"name":"Pierson Ranch Recreation Area","location":"Yankton","state":"South Dakota","country":"USA","imageURL":null,"remarks":"2001"},{"name":"Platte Creek Recreation Area","location":"Charles Mix","state":"South Dakota","country":"USA","imageURL":null,"remarks":"1983"},{"name":"Randall Creek Recreation Area","location":"Gregory","state":"South Dakota","country":"USA","imageURL":null,"remarks":"2002"},{"name":"Revheim Bay Recreation Area","location":"Walworth","state":"South Dakota","country":"USA","imageURL":null,"remarks":"2001"},{"name":"Richmond Lake Recreation Area","location":"Brown","state":"South Dakota","country":"USA","imageURL":null,"remarks":"1947"},{"name":"Rocky Point Recreation Area","location":"Butte","state":"South Dakota","country":"USA","imageURL":null,"remarks":"2005"},{"name":"Roy Lake State Park","location":"Marshall","state":"South Dakota","country":"USA","imageURL":null,"remarks":"1946"},{"name":"Sandy Shore Recreation Area","location":"Codington","state":"South Dakota","country":"USA","imageURL":null,"remarks":"1969"},{"name":"Shadehill Recreation Area","location":"Perkins","state":"South Dakota","country":"USA","imageURL":null,"remarks":"1952"},{"name":"Sheps Canyon Recreation Area","location":"Fall River","state":"South Dakota","country":"USA","imageURL":null,"remarks":""},{"name":"Sica Hollow State Park","location":"Marshall, Roberts","state":"South Dakota","country":"USA","imageURL":null,"remarks":"1968"},{"name":"Snake Creek Recreation Area","location":"Charles Mix","state":"South Dakota","country":"USA","imageURL":null,"remarks":"1983"},{"name":"Spearfish Canyon Nature Area","location":"Lawrence","state":"South Dakota","country":"USA","imageURL":null,"remarks":"2008"},{"name":"Spirit Mound Historic Prairie","location":"Clay","state":"South Dakota","country":"USA","imageURL":null,"remarks":"2001"},{"name":"Spring Creek Recreation Area","location":"Hughes","state":"South Dakota","country":"USA","imageURL":null,"remarks":"2001"},{"name":"Springfield Recreation Area","location":"Bon Homme","state":"South Dakota","country":"USA","imageURL":null,"remarks":"1957"},{"name":"Swan Creek Recreation Area","location":"Walworth","state":"South Dakota","country":"USA","imageURL":null,"remarks":"1983"},{"name":"Union Grove State Park","location":"Union","state":"South Dakota","country":"USA","imageURL":null,"remarks":"1947"},{"name":"Walkers Point Recreation Area","location":"Lake","state":"South Dakota","country":"USA","imageURL":null,"remarks":"1990"},{"name":"West Bend Recreation Area","location":"Hughes","state":"South Dakota","country":"USA","imageURL":null,"remarks":"1984"},{"name":"West Pollock Recreation Area","location":"Campbell","state":"South Dakota","country":"USA","imageURL":null,"remarks":"2001"},{"name":"West Whitlock Recreation Area","location":"Potter","state":"South Dakota","country":"USA","imageURL":null,"remarks":"1983"}]