[{"name":"Aiken State Park","location":"Aiken","state":"South Carolina","country":"USA","imageURL":null,"remarks":null},{"name":"Andrew Jackson State Park","location":"Lancaster","state":"South Carolina","country":"USA","imageURL":null,"remarks":null},{"name":"Baker Creek State Park","location":"McCormick","state":"South Carolina","country":"USA","imageURL":null,"remarks":null},{"name":"Barnwell State Park","location":"Barnwell","state":"South Carolina","country":"USA","imageURL":null,"remarks":null},{"name":"Caesars Head State Park","location":"Greenville","state":"South Carolina","country":"USA","imageURL":null,"remarks":null},{"name":"Calhoun Falls State Park","location":"Abbeville","state":"South Carolina","country":"USA","imageURL":null,"remarks":null},{"name":"Charles Towne Landing State Historic Site","location":"Charleston","state":"South Carolina","country":"USA","imageURL":null,"remarks":null},{"name":"Cheraw State Park","location":"Chesterfield","state":"South Carolina","country":"USA","imageURL":null,"remarks":null},{"name":"Chester State Park","location":"Chester","state":"South Carolina","country":"USA","imageURL":null,"remarks":null},{"name":"Colleton State Park","location":"Colleton","state":"South Carolina","country":"USA","imageURL":null,"remarks":null},{"name":"Colonial Dorchester State Historic Site","location":"Dorchester","state":"South Carolina","country":"USA","imageURL":null,"remarks":null},{"name":"Croft State Park","location":"Spartanburg","state":"South Carolina","country":"USA","imageURL":null,"remarks":null},{"name":"Devils Fork State Park","location":"Oconee","state":"South Carolina","country":"USA","imageURL":null,"remarks":null},{"name":"Dreher Island State Park","location":"Newberry","state":"South Carolina","country":"USA","imageURL":null,"remarks":null},{"name":"Edisto Beach State Park","location":"Colleton","state":"South Carolina","country":"USA","imageURL":null,"remarks":null},{"name":"Givhans Ferry State Park","location":"Colleton, Dorchester","state":"South Carolina","country":"USA","imageURL":null,"remarks":null},{"name":"Goodale State Park","location":"Kershaw","state":"South Carolina","country":"USA","imageURL":null,"remarks":null},{"name":"H. Cooper Black Jr. Memorial Field Trial and Recreation Area","location":"Chesterfield","state":"South Carolina","country":"USA","imageURL":null,"remarks":null},{"name":"Hamilton Branch State Park","location":"McCormick","state":"South Carolina","country":"USA","imageURL":null,"remarks":null},{"name":"Hampton Plantation State Historic Site","location":"Charleston","state":"South Carolina","country":"USA","imageURL":null,"remarks":null},{"name":"Hickory Knob State Resort Park","location":"McCormick","state":"South Carolina","country":"USA","imageURL":null,"remarks":null},{"name":"Hunting Island State Park","location":"Beaufort","state":"South Carolina","country":"USA","imageURL":null,"remarks":null},{"name":"Huntington Beach State Park","location":"Georgetown","state":"South Carolina","country":"USA","imageURL":null,"remarks":null},{"name":"Jones Gap State Park","location":"Greenville","state":"South Carolina","country":"USA","imageURL":null,"remarks":null},{"name":"Keowee-Toxaway State Park","location":"Pickens","state":"South Carolina","country":"USA","imageURL":null,"remarks":null},{"name":"Kings Mountain State Park","location":"Cherokee, York","state":"South Carolina","country":"USA","imageURL":null,"remarks":null},{"name":"Lake Greenwood State Park","location":"Greenwood","state":"South Carolina","country":"USA","imageURL":null,"remarks":null},{"name":"Lake Hartwell State Park","location":"Oconee","state":"South Carolina","country":"USA","imageURL":null,"remarks":null},{"name":"Lake Warren State Park","location":"Hampton","state":"South Carolina","country":"USA","imageURL":null,"remarks":null},{"name":"Lake Wateree State Park","location":"Fairfield","state":"South Carolina","country":"USA","imageURL":null,"remarks":null},{"name":"Landsford Canal State Park","location":"Chester, Lancaster","state":"South Carolina","country":"USA","imageURL":null,"remarks":null},{"name":"Lee State Park","location":"Lee","state":"South Carolina","country":"USA","imageURL":null,"remarks":null},{"name":"Little Pee Dee State Park","location":"Dillon","state":"South Carolina","country":"USA","imageURL":null,"remarks":null},{"name":"Musgrove Mill State Historic Site","location":"Laurens, Spartanburg, Union","state":"South Carolina","country":"USA","imageURL":null,"remarks":null},{"name":"Myrtle Beach State Park","location":"Horry","state":"South Carolina","country":"USA","imageURL":null,"remarks":null},{"name":"Oconee State Park","location":"Oconee","state":"South Carolina","country":"USA","imageURL":null,"remarks":null},{"name":"Oconee Station State Historic Site","location":"Oconee","state":"South Carolina","country":"USA","imageURL":null,"remarks":null},{"name":"Paris Mountain State Park","location":"Greenville","state":"South Carolina","country":"USA","imageURL":null,"remarks":null},{"name":"Poinsett State Park","location":"Sumter","state":"South Carolina","country":"USA","imageURL":null,"remarks":null},{"name":"Redcliffe Plantation State Historic Site","location":"Aiken","state":"South Carolina","country":"USA","imageURL":null,"remarks":null},{"name":"Rivers Bridge State Historic Site","location":"Bamberg","state":"South Carolina","country":"USA","imageURL":null,"remarks":null},{"name":"Rose Hill Plantation State Historic Site","location":"Union","state":"South Carolina","country":"USA","imageURL":null,"remarks":null},{"name":"Sadlers Creek State Park","location":"Anderson","state":"South Carolina","country":"USA","imageURL":null,"remarks":null},{"name":"Santee State Park","location":"Orangeburg","state":"South Carolina","country":"USA","imageURL":null,"remarks":null},{"name":"Sesquicentennial State Park","location":"Richland","state":"South Carolina","country":"USA","imageURL":null,"remarks":null},{"name":"Table Rock State Park","location":"Pickens","state":"South Carolina","country":"USA","imageURL":null,"remarks":null},{"name":"Woods Bay State Park","location":"Clarendon, Florence, Sumter","state":"South Carolina","country":"USA","imageURL":null,"remarks":null}]