[{"name":"Bicentennial Capitol Mall State Park","location":"Davidson","state":"Tennessee","country":"USA","imageURL":null,"remarks":null},{"name":"Big Cypress Tree State Park","location":"Weakley","state":"Tennessee","country":"USA","imageURL":null,"remarks":null},{"name":"Big Hill Pond State Park","location":"McNairy","state":"Tennessee","country":"USA","imageURL":null,"remarks":null},{"name":"Big Ridge State Park","location":"Union","state":"Tennessee","country":"USA","imageURL":null,"remarks":null},{"name":"Bledsoe Creek State Park","location":"Sumner","state":"Tennessee","country":"USA","imageURL":null,"remarks":null},{"name":"Booker T. Washington State Park","location":"Hamilton","state":"Tennessee","country":"USA","imageURL":null,"remarks":null},{"name":"Burgess Falls State Park","location":"Putnam","state":"Tennessee","country":"USA","imageURL":null,"remarks":null},{"name":"Cedars of Lebanon State Park","location":"Wilson","state":"Tennessee","country":"USA","imageURL":null,"remarks":null},{"name":"Chickasaw State Park","location":"Chester","state":"Tennessee","country":"USA","imageURL":null,"remarks":null},{"name":"Cordell Hull Birthplace State Park","location":"Pickett","state":"Tennessee","country":"USA","imageURL":null,"remarks":null},{"name":"Cove Lake State Park","location":"Campbell","state":"Tennessee","country":"USA","imageURL":null,"remarks":null},{"name":"Cumberland Mountain State Park","location":"Cumberland","state":"Tennessee","country":"USA","imageURL":null,"remarks":null},{"name":"Cummins Falls State Park","location":"Jackson","state":"Tennessee","country":"USA","imageURL":null,"remarks":null},{"name":"David Crockett State Park","location":"Lawrence","state":"Tennessee","country":"USA","imageURL":null,"remarks":null},{"name":"David Crockett Birthplace State Park","location":"Greene","state":"Tennessee","country":"USA","imageURL":null,"remarks":null},{"name":"Dunbar Cave State Park","location":"Montgomery","state":"Tennessee","country":"USA","imageURL":null,"remarks":null},{"name":"Edgar Evins State Park","location":"DeKalb","state":"Tennessee","country":"USA","imageURL":null,"remarks":null},{"name":"Fall Creek Falls State Park","location":"Van Buren, Bledsoe","state":"Tennessee","country":"USA","imageURL":null,"remarks":null},{"name":"Fort Loudoun State Historic Park","location":"Monroe","state":"Tennessee","country":"USA","imageURL":null,"remarks":null},{"name":"Fort Pillow State Park","location":"Lauderdale","state":"Tennessee","country":"USA","imageURL":null,"remarks":null},{"name":"Frozen Head State Park","location":"Morgan","state":"Tennessee","country":"USA","imageURL":null,"remarks":null},{"name":"Harpeth River State Park","location":"Cheatham, Davidson","state":"Tennessee","country":"USA","imageURL":null,"remarks":null},{"name":"Harrison Bay State Park","location":"Hamilton","state":"Tennessee","country":"USA","imageURL":null,"remarks":null},{"name":"Henry Horton State Park","location":"Marshall","state":"Tennessee","country":"USA","imageURL":null,"remarks":null},{"name":"Hiwassee/Ocoee Scenic River State Park","location":"Polk","state":"Tennessee","country":"USA","imageURL":null,"remarks":null},{"name":"Indian Mountain State Park","location":"Campbell","state":"Tennessee","country":"USA","imageURL":null,"remarks":null},{"name":"Johnsonville State Historic Park","location":"Humphreys","state":"Tennessee","country":"USA","imageURL":null,"remarks":null},{"name":"Justin P. Wilson Cumberland Trail State Park","location":"Anderson, Bledsoe, Campbell, Claiborne, Cumberland, Hamilton, Marion, Morgan, Rhea, Scott, Sequatchie","state":"Tennessee","country":"USA","imageURL":null,"remarks":null},{"name":"Long Hunter State Park","location":"Davidson","state":"Tennessee","country":"USA","imageURL":null,"remarks":null},{"name":"Meeman-Shelby Forest State Park","location":"Shelby","state":"Tennessee","country":"USA","imageURL":null,"remarks":null},{"name":"Montgomery Bell State Park","location":"Dickson","state":"Tennessee","country":"USA","imageURL":null,"remarks":null},{"name":"Mousetail Landing State Park","location":"Perry","state":"Tennessee","country":"USA","imageURL":null,"remarks":null},{"name":"Natchez Trace State Park","location":"Henderson","state":"Tennessee","country":"USA","imageURL":null,"remarks":null},{"name":"Nathan Bedford Forrest State Park","location":"Benton","state":"Tennessee","country":"USA","imageURL":null,"remarks":null},{"name":"Norris Dam State Park","location":"Anderson, Campbell","state":"Tennessee","country":"USA","imageURL":null,"remarks":null},{"name":"Old Stone Fort State Archaeological Park","location":"Coffee","state":"Tennessee","country":"USA","imageURL":null,"remarks":null},{"name":"Panther Creek State Park","location":"Hamblen","state":"Tennessee","country":"USA","imageURL":null,"remarks":null},{"name":"Paris Landing State Park","location":"Henry","state":"Tennessee","country":"USA","imageURL":null,"remarks":null},{"name":"Pickett CCC Memorial State Park","location":"Pickett","state":"Tennessee","country":"USA","imageURL":null,"remarks":null},{"name":"Pickwick Landing State Park","location":"Hardin","state":"Tennessee","country":"USA","imageURL":null,"remarks":null},{"name":"Pinson Mounds State Archaeological Park","location":"Madison","state":"Tennessee","country":"USA","imageURL":null,"remarks":null},{"name":"Port Royal State Park","location":"Montgomery, Robertson","state":"Tennessee","country":"USA","imageURL":null,"remarks":null},{"name":"Radnor Lake State Park & Natural Area","location":"Davidson","state":"Tennessee","country":"USA","imageURL":null,"remarks":null},{"name":"Red Clay State Park","location":"Bradley","state":"Tennessee","country":"USA","imageURL":null,"remarks":null},{"name":"Reelfoot Lake State Park","location":"Lake, Obion","state":"Tennessee","country":"USA","imageURL":null,"remarks":null},{"name":"Roan Mountain State Park","location":"Carter","state":"Tennessee","country":"USA","imageURL":null,"remarks":null},{"name":"Rock Island State Park","location":"Warren, White","state":"Tennessee","country":"USA","imageURL":null,"remarks":null},{"name":"Rocky Fork State Park","location":"Unicoi","state":"Tennessee","country":"USA","imageURL":null,"remarks":null},{"name":"Seven Islands State Birding Park","location":"Knox","state":"Tennessee","country":"USA","imageURL":null,"remarks":null},{"name":"Sgt. Alvin C. York State Historic Park","location":"Fentress","state":"Tennessee","country":"USA","imageURL":null,"remarks":null},{"name":"South Cumberland State Park","location":"Franklin, Marion, Grundy, Sequatchie","state":"Tennessee","country":"USA","imageURL":null,"remarks":null},{"name":"Standing Stone State Park","location":"Overton","state":"Tennessee","country":"USA","imageURL":null,"remarks":null},{"name":"Sycamore Shoals State Historic Area","location":"Carter","state":"Tennessee","country":"USA","imageURL":null,"remarks":null},{"name":"Tims Ford State Park","location":"Franklin","state":"Tennessee","country":"USA","imageURL":null,"remarks":null},{"name":"T. O. Fuller State Park","location":"Shelby","state":"Tennessee","country":"USA","imageURL":null,"remarks":null},{"name":"Warriors' Path State Park","location":"Sullivan","state":"Tennessee","country":"USA","imageURL":null,"remarks":null}]