[{"name":"Abilene State Park","location":"Taylor","state":"Texas","country":"USA","imageURL":null,"remarks":null},{"name":"Atlanta State Park","location":"Cass","state":"Texas","country":"USA","imageURL":null,"remarks":null},{"name":"Balmorhea State Park","location":"Reeves","state":"Texas","country":"USA","imageURL":null,"remarks":null},{"name":"Barton Warnock Visitor Center","location":"Brewster","state":"Texas","country":"USA","imageURL":null,"remarks":null},{"name":"Bastrop State Park","location":"Bastrop","state":"Texas","country":"USA","imageURL":null,"remarks":null},{"name":"Bentsen-Rio Grande Valley State Park","location":"Hidalgo","state":"Texas","country":"USA","imageURL":null,"remarks":null},{"name":"Big Bend Ranch State Park","location":"Presidio, Brewster","state":"Texas","country":"USA","imageURL":null,"remarks":null},{"name":"Big Spring State Park","location":"Howard","state":"Texas","country":"USA","imageURL":null,"remarks":null},{"name":"Blanco State Park","location":"Blanco","state":"Texas","country":"USA","imageURL":null,"remarks":null},{"name":"Bonham State Park","location":"Fannin","state":"Texas","country":"USA","imageURL":null,"remarks":null},{"name":"Brazos Bend State Park","location":"Fort Bend","state":"Texas","country":"USA","imageURL":null,"remarks":null},{"name":"Buescher State Park","location":"Bastrop","state":"Texas","country":"USA","imageURL":null,"remarks":null},{"name":"Caddo Lake State Park","location":"Harrison","state":"Texas","country":"USA","imageURL":null,"remarks":null},{"name":"Caprock Canyons State Park and Trailway","location":"Briscoe","state":"Texas","country":"USA","imageURL":null,"remarks":null},{"name":"Cedar Hill State Park - includes Penn Farm Agricultural History Center","location":"Dallas","state":"Texas","country":"USA","imageURL":null,"remarks":null},{"name":"Choke Canyon State Park - includes Calliham Unit and South Shore Unit","location":"Live Oak, McMullen","state":"Texas","country":"USA","imageURL":null,"remarks":null},{"name":"Cleburne State Park","location":"Johnson","state":"Texas","country":"USA","imageURL":null,"remarks":null},{"name":"Colorado Bend State Park","location":"Lampasas, San Saba","state":"Texas","country":"USA","imageURL":null,"remarks":null},{"name":"Cooper Lake State Park - includes Doctors Creek Unit and South Sulphur Unit","location":"Cooper","state":"Texas","country":"USA","imageURL":null,"remarks":null},{"name":"Copper Breaks State Park","location":"Hardeman","state":"Texas","country":"USA","imageURL":null,"remarks":null},{"name":"Daingerfield State Park","location":"Morris","state":"Texas","country":"USA","imageURL":null,"remarks":null},{"name":"Davis Mountains State Park","location":"Davis","state":"Texas","country":"USA","imageURL":null,"remarks":null},{"name":"Devils River State Natural Area - includes Dan Allen Hughes Unit and Del Norte Unit","location":"Val Verde","state":"Texas","country":"USA","imageURL":null,"remarks":null},{"name":"Devil's Sinkhole State Natural Area","location":"Edwards","state":"Texas","country":"USA","imageURL":null,"remarks":null},{"name":"Dinosaur Valley State Park","location":"Somervell","state":"Texas","country":"USA","imageURL":null,"remarks":null},{"name":"Eisenhower State Park","location":"Grayson","state":"Texas","country":"USA","imageURL":null,"remarks":null},{"name":"Enchanted Rock State Natural Area","location":"Llano","state":"Texas","country":"USA","imageURL":null,"remarks":null},{"name":"Estero Llano Grande State Park","location":"Hidalgo","state":"Texas","country":"USA","imageURL":null,"remarks":null},{"name":"Fairfield Lake State Park","location":"Freestone","state":"Texas","country":"USA","imageURL":null,"remarks":null},{"name":"Falcon State Park","location":"Zapata, Starr","state":"Texas","country":"USA","imageURL":null,"remarks":null},{"name":"Fort Boggy State Park","location":"Leon","state":"Texas","country":"USA","imageURL":null,"remarks":null},{"name":"Fort Leaton State Historic Site","location":"Presidio","state":"Texas","country":"USA","imageURL":null,"remarks":null},{"name":"Fort Parker State Park","location":"Limestone","state":"Texas","country":"USA","imageURL":null,"remarks":null},{"name":"Fort Richardson State Park, Historic Site, and Lost Creek Reservoir State Trailway","location":"Jack","state":"Texas","country":"USA","imageURL":null,"remarks":null},{"name":"Franklin Mountains State Park","location":"El Paso","state":"Texas","country":"USA","imageURL":null,"remarks":null},{"name":"Galveston Island State Park","location":"Galveston","state":"Texas","country":"USA","imageURL":null,"remarks":null},{"name":"Garner State Park","location":"Uvalde","state":"Texas","country":"USA","imageURL":null,"remarks":null},{"name":"Goliad State Park and Historic Site - includes Mission Rosario State Historic Site and Zaragoza Birthplace State Historic Site","location":"Goliad","state":"Texas","country":"USA","imageURL":null,"remarks":null},{"name":"Goose Island State Park","location":"Aransas","state":"Texas","country":"USA","imageURL":null,"remarks":null},{"name":"Government Canyon State Natural Area","location":"Bexar","state":"Texas","country":"USA","imageURL":null,"remarks":null},{"name":"Guadalupe River State Park","location":"Comall, Kendall","state":"Texas","country":"USA","imageURL":null,"remarks":null},{"name":"Hill Country State Natural Area","location":"Bandera, Medina","state":"Texas","country":"USA","imageURL":null,"remarks":null},{"name":"Honey Creek State Natural Area","location":"Comal","state":"Texas","country":"USA","imageURL":null,"remarks":null},{"name":"Hueco Tanks State Park and Historic Site","location":"El Paso","state":"Texas","country":"USA","imageURL":null,"remarks":null},{"name":"Huntsville State Park","location":"Walker","state":"Texas","country":"USA","imageURL":null,"remarks":null},{"name":"Inks Lake State Park","location":"Burnet","state":"Texas","country":"USA","imageURL":null,"remarks":null},{"name":"Kickapoo Cavern State Park","location":"Kinney, Edwards","state":"Texas","country":"USA","imageURL":null,"remarks":null},{"name":"Lake Arrowhead State Park","location":"Clay","state":"Texas","country":"USA","imageURL":null,"remarks":null},{"name":"Lake Bob Sandlin State Park","location":"Titus, Camp, Franklin","state":"Texas","country":"USA","imageURL":null,"remarks":null},{"name":"Lake Brownwood State Park","location":"Brown","state":"Texas","country":"USA","imageURL":null,"remarks":null},{"name":"Lake Casa Blanca International State Park","location":"Webb","state":"Texas","country":"USA","imageURL":null,"remarks":null},{"name":"Lake Colorado City State Park","location":"Mitchell","state":"Texas","country":"USA","imageURL":null,"remarks":null},{"name":"Lake Corpus Christi State Park","location":"San Patricio","state":"Texas","country":"USA","imageURL":null,"remarks":null},{"name":"Lake Livingston State Park","location":"Polk","state":"Texas","country":"USA","imageURL":null,"remarks":null},{"name":"Lake Mineral Wells State Park & Trailway","location":"Parker","state":"Texas","country":"USA","imageURL":null,"remarks":null},{"name":"Lake Somerville State Park and Trailway - includes Birch Creek Unit and Nails Creek Unit","location":"Burleson, Lee","state":"Texas","country":"USA","imageURL":null,"remarks":null},{"name":"Lake Tawakoni State Park","location":"Hunt","state":"Texas","country":"USA","imageURL":null,"remarks":null},{"name":"Lake Whitney State Park","location":"Hill","state":"Texas","country":"USA","imageURL":null,"remarks":null},{"name":"Lockhart State Park","location":"Caldwell","state":"Texas","country":"USA","imageURL":null,"remarks":null},{"name":"Longhorn Cavern State Park","location":"Burnet","state":"Texas","country":"USA","imageURL":null,"remarks":null},{"name":"Lost Maples State Natural Area","location":"Bandera, Real","state":"Texas","country":"USA","imageURL":null,"remarks":null},{"name":"Lyndon B. Johnson State Park and Historic Site - includes Sauer-Beckmann Living History Farm","location":"Gillespie","state":"Texas","country":"USA","imageURL":null,"remarks":null},{"name":"Martin Creek Lake State Park","location":"Rusk","state":"Texas","country":"USA","imageURL":null,"remarks":null},{"name":"Martin Dies, Jr. State Park","location":"Jasper, Tyler","state":"Texas","country":"USA","imageURL":null,"remarks":null},{"name":"McKinney Falls State Park","location":"Travis","state":"Texas","country":"USA","imageURL":null,"remarks":null},{"name":"Meridian State Park","location":"Bosque","state":"Texas","country":"USA","imageURL":null,"remarks":null},{"name":"Mission Tejas State Park","location":"Houston","state":"Texas","country":"USA","imageURL":null,"remarks":null},{"name":"Monahans Sandhills State Park","location":"Ward, Winkler","state":"Texas","country":"USA","imageURL":null,"remarks":null},{"name":"Mother Neff State Park","location":"Coryell","state":"Texas","country":"USA","imageURL":null,"remarks":null},{"name":"Mustang Island State Park","location":"Nueces","state":"Texas","country":"USA","imageURL":null,"remarks":null},{"name":"Old Tunnel State Park","location":"Kendall","state":"Texas","country":"USA","imageURL":null,"remarks":null},{"name":"Palmetto State Park","location":"Gonzales","state":"Texas","country":"USA","imageURL":null,"remarks":null},{"name":"Palo Duro Canyon State Park","location":"Randall","state":"Texas","country":"USA","imageURL":null,"remarks":null},{"name":"Palo Pinto Mountains State Park (under development)","location":"Palo Pinto, Stephens","state":"Texas","country":"USA","imageURL":null,"remarks":null},{"name":"Pedernales Falls State Park","location":"Blanco","state":"Texas","country":"USA","imageURL":null,"remarks":null},{"name":"Possum Kingdom State Park","location":"Palo Pinto","state":"Texas","country":"USA","imageURL":null,"remarks":null},{"name":"Purtis Creek State Park","location":"Henderson, Van Zandt","state":"Texas","country":"USA","imageURL":null,"remarks":null},{"name":"Ray Roberts Lake State Park - includes Isle du Bois Unit, Johnson Branch Unit, Jordan Park Unit, Ray Roberts Greenbelt Corridor, and Sanger Marina Unit","location":"Denton, Cooke, Grayson","state":"Texas","country":"USA","imageURL":null,"remarks":null},{"name":"Resaca de la Palma State Park","location":"Cameron","state":"Texas","country":"USA","imageURL":null,"remarks":null},{"name":"San Angelo State Park","location":"Tom Green","state":"Texas","country":"USA","imageURL":null,"remarks":null},{"name":"Sea Rim State Park","location":"Jefferson","state":"Texas","country":"USA","imageURL":null,"remarks":null},{"name":"Seminole Canyon State Park and Historic Site","location":"Val Verde","state":"Texas","country":"USA","imageURL":null,"remarks":null},{"name":"Sheldon Lake State Park and Environmental Learning Center","location":"Harris","state":"Texas","country":"USA","imageURL":null,"remarks":null},{"name":"South Llano River State Park","location":"Kimble","state":"Texas","country":"USA","imageURL":null,"remarks":null},{"name":"Stephen F. Austin State Park","location":"Austin","state":"Texas","country":"USA","imageURL":null,"remarks":null},{"name":"Tyler State Park","location":"Smith","state":"Texas","country":"USA","imageURL":null,"remarks":null},{"name":"Village Creek State Park","location":"Hardin","state":"Texas","country":"USA","imageURL":null,"remarks":null},{"name":"Wyler Aerial Tramway (closed)","location":"El Paso","state":"Texas","country":"USA","imageURL":null,"remarks":null}]