[{"name":"Anasazi State Park Museum","location":"Garfield","state":"Utah","country":"USA","imageURL":null,"remarks":"Interprets a large Ancestral Puebloan village occupied from AD 1160 to 1235."},{"name":"Antelope Island State Park","location":"Davis","state":"Utah","country":"USA","imageURL":null,"remarks":"Protects Antelope Island, the largest island in the Great Salt Lake and habitat for bison, Pronghorn, and bighorn sheep."},{"name":"Bear Lake State Park","location":"Rich","state":"Utah","country":"USA","imageURL":null,"remarks":"Comprises three units on Bear Lake."},{"name":"Camp Floyd / Stagecoach Inn State Park and Museum","location":"Utah","state":"Utah","country":"USA","imageURL":null,"remarks":"Interprets sites from the time of a massive 1858-1861 U.S. Army camp prompted by fear of the Utah War."},{"name":"Coral Pink Sand Dunes State Park","location":"Kane","state":"Utah","country":"USA","imageURL":null,"remarks":"Preserves the only dune field on the Colorado Plateau, with a unique color caused by iron oxides and minerals in the Navajo sandstone."},{"name":"Dead Horse Point State Park","location":"Grand and San Juan","state":"Utah","country":"USA","imageURL":null,"remarks":"Showcases views of the Colorado River and Canyonlands National Park from a finger of land once used as a horse corral."},{"name":"Deer Creek State Park","location":"Wasatch","state":"Utah","country":"USA","imageURL":null,"remarks":"Adjoins the extremely popular 2,965-acre (1,200 ha) Deer Creek Reservoir."},{"name":"East Canyon State Park","location":"Morgan","state":"Utah","country":"USA","imageURL":null,"remarks":"Features a reservoir in a canyon first traversed by the Donner Party and soon thereafter by Mormon pioneers."},{"name":"Echo State Park","location":"Summit","state":"Utah","country":"USA","imageURL":null,"remarks":"Echo Reservoir recreation."},{"name":"Edge of the Cedars State Park Museum","location":"San Juan","state":"Utah","country":"USA","imageURL":null,"remarks":"Interprets an Ancestral Puebloan village occupied from AD 825 to 1125."},{"name":"Escalante Petrified Forest State Park","location":"Garfield","state":"Utah","country":"USA","imageURL":null,"remarks":"Features petrified wood and other fossils plus a recreational reservoir."},{"name":"Flight Park State Recreation Area","location":"Salt Lake and Utah","state":"Utah","country":"USA","imageURL":null,"remarks":"Offers one of the world's best training sites for hang gliding and parasailing, plus a modelport for radio control aircraft."},{"name":"Fremont Indian State Park and Museum","location":"Sevier","state":"Utah","country":"USA","imageURL":null,"remarks":"Preserves rock art and artifacts from the largest Fremont culture village yet discovered."},{"name":"Frontier Homestead State Park Museum","location":"Iron","state":"Utah","country":"USA","imageURL":null,"remarks":"Preserves historic structures and equipment from the 1850s to the 1920s, including Old Iron Town and an extensive collection of horse-drawn vehicles.  Formerly called Iron Mission State Park."},{"name":"Goblin Valley State Park","location":"Emery","state":"Utah","country":"USA","imageURL":null,"remarks":"Showcases an unearthly landscape of hoodoos and other rock formations."},{"name":"Goosenecks State Park","location":"San Juan","state":"Utah","country":"USA","imageURL":null,"remarks":"Overlooks some dramatic meanders of the San Juan River."},{"name":"Great Salt Lake State Park","location":"Salt Lake","state":"Utah","country":"USA","imageURL":null,"remarks":"Maintains a public boat launch and 320-slip marina on the Great Salt Lake."},{"name":"Green River State Park","location":"Emery","state":"Utah","country":"USA","imageURL":null,"remarks":"Features a shady campground, nine-hole golf course, and float trip launching on the Green River."},{"name":"Gunlock State Park","location":"Washington","state":"Utah","country":"USA","imageURL":null,"remarks":"Adjoins a 266-acre (108 ha) reservoir."},{"name":"Historic Union Pacific Rail Trail State Park","location":"Summit","state":"Utah","country":"USA","imageURL":null,"remarks":"Comprises a 28-mile (45 km) rail trail on a route used by the Union Pacific Railroad from 1880 to 1989."},{"name":"Huntington State Park","location":"Emery","state":"Utah","country":"USA","imageURL":null,"remarks":"Features a warm-water reservoir."},{"name":"Hyrum State Park","location":"Cache","state":"Utah","country":"USA","imageURL":null,"remarks":"Surrounds a 450-acre (180 ha) reservoir."},{"name":"Jordan River Off-Highway Vehicle State Recreation Area","location":"Salt Lake","state":"Utah","country":"USA","imageURL":null,"remarks":"Offers four tracks for off highway vehicles along the Jordan River."},{"name":"Jordanelle State Park","location":"Wasatch","state":"Utah","country":"USA","imageURL":null,"remarks":"Comprises two recreation areas on Jordanelle Reservoir."},{"name":"Kodachrome Basin State Park","location":"Kane","state":"Utah","country":"USA","imageURL":null,"remarks":"Showcases 67 rock spires and other geologic wonders in a basin so photogenic it was named after Kodachrome film."},{"name":"Lost Creek State Park","location":"Morgan","state":"Utah","country":"USA","imageURL":null,"remarks":""},{"name":"Millsite State Park","location":"Emery","state":"Utah","country":"USA","imageURL":null,"remarks":"Features a reservoir and lands for off highway vehicles and mountain biking."},{"name":"Otter Creek State Park","location":"Piute","state":"Utah","country":"USA","imageURL":null,"remarks":"Features a 3,120-acre (1,260 ha) reservoir, begun in 1897 as one of the earliest dam projects in Utah."},{"name":"Palisade State Park","location":"Sanpete","state":"Utah","country":"USA","imageURL":null,"remarks":"Features a reservoir and 18-hole golf course on the former site of a private resort founded in the 1860s."},{"name":"Piute State Park","location":"Piute","state":"Utah","country":"USA","imageURL":null,"remarks":"Protects a quiet fishing reservoir on the Sevier River."},{"name":"Quail Creek State Park","location":"Washington","state":"Utah","country":"USA","imageURL":null,"remarks":"Adjoins a 600-acre (240 ha) reservoir surrounded by red rock desert."},{"name":"Red Fleet State Park","location":"Uintah","state":"Utah","country":"USA","imageURL":null,"remarks":"Features a 750-acre (300 ha) reservoir and a fossil trackway of dinosaur footprints."},{"name":"Rockport State Park","location":"Summit","state":"Utah","country":"USA","imageURL":null,"remarks":"Features a 1,080-acre (440 ha) reservoir."},{"name":"Sand Hollow State Park","location":"Washington","state":"Utah","country":"USA","imageURL":null,"remarks":"Features a 1,322-acre (535 ha) reservoir and an extensive off highway vehicle recreation area."},{"name":"Scofield State Park","location":"Carbon","state":"Utah","country":"USA","imageURL":null,"remarks":"Features a 2,800-acre (1,100 ha) reservoir."},{"name":"Snow Canyon State Park","location":"Washington","state":"Utah","country":"USA","imageURL":null,"remarks":"Showcases a canyon carved out of colorful Navajo sandstone and landforms created by the Santa Clara Volcano."},{"name":"Starvation State Park","location":"Duchesne","state":"Utah","country":"USA","imageURL":null,"remarks":"Features a 3,495-acre (1,414 ha) reservoir where early settlers once struggled against starvation."},{"name":"Steinaker State Park","location":"Uintah","state":"Utah","country":"USA","imageURL":null,"remarks":"Features an 820-acre (330 ha) reservoir."},{"name":"This Is the Place Heritage Park","location":"Salt Lake","state":"Utah","country":"USA","imageURL":null,"remarks":"Interprets Utah's settlement era with a living history village and This Is the Place Monument."},{"name":"Utahraptor State Park","location":"Grand","state":"Utah","country":"USA","imageURL":null,"remarks":"Features the Dalton Wells Dinosaur Quarry"},{"name":"Territorial Statehouse State Park Museum","location":"Millard","state":"Utah","country":"USA","imageURL":null,"remarks":"Interprets the capitol of Utah Territory, the state's oldest government building, constructed between 1852 and 1855."},{"name":"Utah Field House of Natural History State Park Museum","location":"Uintah","state":"Utah","country":"USA","imageURL":null,"remarks":"Houses a state-owned museum of natural history."},{"name":"Utah Lake State Park","location":"Utah","state":"Utah","country":"USA","imageURL":null,"remarks":"Adjoins Utah Lake, the state's largest body of fresh water."},{"name":"Wasatch Mountain State Park","location":"Wasatch","state":"Utah","country":"USA","imageURL":null,"remarks":"Features extensive recreational developments, including facilities built for the 2002 Winter Olympics."},{"name":"Willard Bay State Park","location":"Box Elder","state":"Utah","country":"USA","imageURL":null,"remarks":"Provides water recreation opportunities on a 9,900-acre (4,000 ha) freshwater reservoir on the floodplain of the Great Salt Lake."},{"name":"Yuba State Park","location":"Juab and Sanpete","state":"Utah","country":"USA","imageURL":null,"remarks":"Features a reservoir on the Sevier River."}]