[{"name":"Alburg Dunes State Park","location":"Grand Isle","state":"Vermont","country":"USA","imageURL":null,"remarks":null},{"name":"Allis State Park","location":"Orange","state":"Vermont","country":"USA","imageURL":null,"remarks":null},{"name":"Big Deer State Park","location":"Caledonia","state":"Vermont","country":"USA","imageURL":null,"remarks":null},{"name":"Bomoseen State Park","location":"Rutland","state":"Vermont","country":"USA","imageURL":null,"remarks":null},{"name":"Boulder Beach State Park","location":"Caledonia","state":"Vermont","country":"USA","imageURL":null,"remarks":null},{"name":"Branbury State Park","location":"Addison","state":"Vermont","country":"USA","imageURL":null,"remarks":null},{"name":"Brighton State Park","location":"Essex","state":"Vermont","country":"USA","imageURL":null,"remarks":null},{"name":"Burton Island State Park","location":"Franklin","state":"Vermont","country":"USA","imageURL":null,"remarks":null},{"name":"Button Bay State Park","location":"Addison","state":"Vermont","country":"USA","imageURL":null,"remarks":null},{"name":"Camel's Hump State Park","location":"Chittenden, Washington","state":"Vermont","country":"USA","imageURL":null,"remarks":null},{"name":"Camp Plymouth State Park","location":"Windsor","state":"Vermont","country":"USA","imageURL":null,"remarks":null},{"name":"Coolidge State Park","location":"Windsor","state":"Vermont","country":"USA","imageURL":null,"remarks":null},{"name":"Crystal Lake State Park","location":"Orleans","state":"Vermont","country":"USA","imageURL":null,"remarks":null},{"name":"D.A.R. State Park","location":"Addison","state":"Vermont","country":"USA","imageURL":null,"remarks":null},{"name":"D&H Rail Trail","location":"Bennington, Rutland","state":"Vermont","country":"USA","imageURL":null,"remarks":null},{"name":"Elmore State Park","location":"Lamoille","state":"Vermont","country":"USA","imageURL":null,"remarks":null},{"name":"Emerald Lake State Park","location":"Bennington","state":"Vermont","country":"USA","imageURL":null,"remarks":null},{"name":"Fort Dummer State Park","location":"Windham","state":"Vermont","country":"USA","imageURL":null,"remarks":null},{"name":"Gifford Woods State Park","location":"Rutland","state":"Vermont","country":"USA","imageURL":null,"remarks":null},{"name":"Grand Isle State Park","location":"Grand Isle","state":"Vermont","country":"USA","imageURL":null,"remarks":null},{"name":"Green River Reservoir State Park","location":"Lamoille","state":"Vermont","country":"USA","imageURL":null,"remarks":null},{"name":"Half Moon Pond State Park","location":"Rutland","state":"Vermont","country":"USA","imageURL":null,"remarks":null},{"name":"Hazen's Notch State Park","location":"Orleans","state":"Vermont","country":"USA","imageURL":null,"remarks":null},{"name":"Jamaica State Park","location":"Windham","state":"Vermont","country":"USA","imageURL":null,"remarks":null},{"name":"Kamp Kill Kare State Park","location":"Franklin","state":"Vermont","country":"USA","imageURL":null,"remarks":null},{"name":"Kettle Pond State Park","location":"Washington","state":"Vermont","country":"USA","imageURL":null,"remarks":null},{"name":"Kingsland Bay State Park","location":"Addison","state":"Vermont","country":"USA","imageURL":null,"remarks":null},{"name":"Knight Island State Park","location":"Grand Isle","state":"Vermont","country":"USA","imageURL":null,"remarks":null},{"name":"Knight Point State Park","location":"Grand Isle","state":"Vermont","country":"USA","imageURL":null,"remarks":null},{"name":"Lake Carmi State Park","location":"Franklin","state":"Vermont","country":"USA","imageURL":null,"remarks":null},{"name":"Lake St. Catherine State Park","location":"Rutland","state":"Vermont","country":"USA","imageURL":null,"remarks":null},{"name":"Lake Shaftsbury State Park","location":"Bennington","state":"Vermont","country":"USA","imageURL":null,"remarks":null},{"name":"Little River State Park","location":"Washington","state":"Vermont","country":"USA","imageURL":null,"remarks":null},{"name":"Lowell Lake State Park","location":"Windham","state":"Vermont","country":"USA","imageURL":null,"remarks":null},{"name":"Maidstone State Park","location":"Essex","state":"Vermont","country":"USA","imageURL":null,"remarks":null},{"name":"Molly Stark State Park","location":"Bennington","state":"Vermont","country":"USA","imageURL":null,"remarks":null},{"name":"Molly's Falls Pond State Park","location":"Washington","state":"Vermont","country":"USA","imageURL":null,"remarks":null},{"name":"Mount Ascutney State Park","location":"Windsor","state":"Vermont","country":"USA","imageURL":null,"remarks":null},{"name":"Mount Philo State Park","location":"Chittenden","state":"Vermont","country":"USA","imageURL":null,"remarks":null},{"name":"Muckross State Park","location":"Windsor","state":"Vermont","country":"USA","imageURL":null,"remarks":null},{"name":"New Discovery State Park","location":"Washington","state":"Vermont","country":"USA","imageURL":null,"remarks":null},{"name":"Niquette Bay State Park","location":"Chittenden","state":"Vermont","country":"USA","imageURL":null,"remarks":null},{"name":"North Hero State Park","location":"Grand Isle","state":"Vermont","country":"USA","imageURL":null,"remarks":null},{"name":"Quechee State Park","location":"Windsor","state":"Vermont","country":"USA","imageURL":null,"remarks":null},{"name":"Ricker Pond State Park","location":"Caledonia","state":"Vermont","country":"USA","imageURL":null,"remarks":null},{"name":"Sand Bar State Park","location":"Chittenden","state":"Vermont","country":"USA","imageURL":null,"remarks":null},{"name":"Sentinel Rock State Park","location":"Orleans","state":"Vermont","country":"USA","imageURL":null,"remarks":null},{"name":"Seyon Lodge State Park","location":"Caledonia","state":"Vermont","country":"USA","imageURL":null,"remarks":null},{"name":"Silver Lake State Park","location":"Windsor","state":"Vermont","country":"USA","imageURL":null,"remarks":null},{"name":"Smugglers' Notch State Park","location":"Lamoille","state":"Vermont","country":"USA","imageURL":null,"remarks":null},{"name":"Stillwater State Park","location":"Caledonia","state":"Vermont","country":"USA","imageURL":null,"remarks":null},{"name":"Sweet Pond State Park","location":"Windham","state":"Vermont","country":"USA","imageURL":null,"remarks":null},{"name":"Taconic Mountains Ramble State Park","location":"Rutland","state":"Vermont","country":"USA","imageURL":null,"remarks":null},{"name":"Thetford Hill State Park","location":"Orange","state":"Vermont","country":"USA","imageURL":null,"remarks":null},{"name":"Townshend State Park","location":"Windham","state":"Vermont","country":"USA","imageURL":null,"remarks":null},{"name":"Underhill State Park","location":"Chittenden","state":"Vermont","country":"USA","imageURL":null,"remarks":null},{"name":"Waterbury Center State Park","location":"Washington","state":"Vermont","country":"USA","imageURL":null,"remarks":null},{"name":"Wilgus State Park","location":"Windsor","state":"Vermont","country":"USA","imageURL":null,"remarks":null},{"name":"Woodford State Park","location":"Bennington","state":"Vermont","country":"USA","imageURL":null,"remarks":null},{"name":"Woods Island State Park","location":"Franklin","state":"Vermont","country":"USA","imageURL":null,"remarks":null}]