[{"name":"Bear Creek Lake State Park","location":"Cumberland","state":"Virginia","country":"USA","imageURL":null,"remarks":""},{"name":"Belle Isle State Park","location":"Lancaster County","state":"Virginia","country":"USA","imageURL":null,"remarks":""},{"name":"Breaks Interstate Park","location":"Breaks","state":"Virginia","country":"USA","imageURL":null,"remarks":""},{"name":"Caledon State Park","location":"King George","state":"Virginia","country":"USA","imageURL":null,"remarks":""},{"name":"Chippokes Plantation State Park","location":"Surry","state":"Virginia","country":"USA","imageURL":null,"remarks":""},{"name":"Claytor Lake State Park","location":"Dublin","state":"Virginia","country":"USA","imageURL":null,"remarks":""},{"name":"Clinch River State Park","location":"St. Paul","state":"Virginia","country":"USA","imageURL":null,"remarks":""},{"name":"Culpeper Battlefields State Park","location":"Culpeper","state":"Virginia","country":"USA","imageURL":null,"remarks":""},{"name":"Douthat State Park","location":"Millboro","state":"Virginia","country":"USA","imageURL":null,"remarks":""},{"name":"Fairy Stone State Park","location":"Stuart","state":"Virginia","country":"USA","imageURL":null,"remarks":""},{"name":"False Cape State Park","location":"Virginia Beach","state":"Virginia","country":"USA","imageURL":null,"remarks":""},{"name":"First Landing State Park","location":"Virginia Beach","state":"Virginia","country":"USA","imageURL":null,"remarks":"Originally Seashore State Park"},{"name":"Grayson Highlands State Park","location":"Mouth of Wilson","state":"Virginia","country":"USA","imageURL":null,"remarks":""},{"name":"High Bridge Trail State Park","location":"Farmville","state":"Virginia","country":"USA","imageURL":null,"remarks":""},{"name":"Holliday Lake State Park","location":"Appomattox","state":"Virginia","country":"USA","imageURL":null,"remarks":""},{"name":"Hungry Mother State Park","location":"Marion","state":"Virginia","country":"USA","imageURL":null,"remarks":""},{"name":"James River State Park","location":"Gladstone","state":"Virginia","country":"USA","imageURL":null,"remarks":""},{"name":"Kiptopeke State Park","location":"Cape Charles","state":"Virginia","country":"USA","imageURL":null,"remarks":""},{"name":"Lake Anna State Park","location":"Spotsylvania County","state":"Virginia","country":"USA","imageURL":null,"remarks":""},{"name":"Leesylvania State Park","location":"Woodbridge","state":"Virginia","country":"USA","imageURL":null,"remarks":""},{"name":"Machicomoco State Park","location":"Gloucester","state":"Virginia","country":"USA","imageURL":null,"remarks":""},{"name":"Mason Neck State Park","location":"Lorton","state":"Virginia","country":"USA","imageURL":null,"remarks":""},{"name":"Mayo River State Park","location":"Spencer","state":"Virginia","country":"USA","imageURL":null,"remarks":"Planned opening Spring 2022."},{"name":"Middle Peninsula State Park","location":"Lancaster County","state":"Virginia","country":"USA","imageURL":null,"remarks":"Currently in conservation status"},{"name":"Natural Bridge State Park","location":"Natural Bridge","state":"Virginia","country":"USA","imageURL":null,"remarks":""},{"name":"Natural Tunnel State Park","location":"Duffield","state":"Virginia","country":"USA","imageURL":null,"remarks":""},{"name":"New River Trail State Park","location":"Fosters Falls","state":"Virginia","country":"USA","imageURL":null,"remarks":""},{"name":"Occoneechee State Park","location":"Clarksville","state":"Virginia","country":"USA","imageURL":null,"remarks":""},{"name":"Pocahontas State Park","location":"Chesterfield","state":"Virginia","country":"USA","imageURL":null,"remarks":""},{"name":"Powhatan State Park","location":"Powhatan","state":"Virginia","country":"USA","imageURL":null,"remarks":""},{"name":"Sailor's Creek Battlefield State Park","location":"Rice","state":"Virginia","country":"USA","imageURL":null,"remarks":""},{"name":"Seven Bends State Park","location":"Woodstock","state":"Virginia","country":"USA","imageURL":null,"remarks":""},{"name":"Shenandoah River Raymond R. \"Andy\" Guest Jr. State Park","location":"Bentonville","state":"Virginia","country":"USA","imageURL":null,"remarks":""},{"name":"Shot Tower Historical State Park","location":"Austinville","state":"Virginia","country":"USA","imageURL":null,"remarks":""},{"name":"Sky Meadows State Park","location":"Delaplane","state":"Virginia","country":"USA","imageURL":null,"remarks":""},{"name":"Smith Mountain Lake State Park","location":"Huddleston","state":"Virginia","country":"USA","imageURL":null,"remarks":""},{"name":"Southwest Virginia Museum Historical State Park","location":"Big Stone Gap","state":"Virginia","country":"USA","imageURL":null,"remarks":""},{"name":"Staunton River State Park","location":"Scottsburg","state":"Virginia","country":"USA","imageURL":null,"remarks":""},{"name":"Staunton River Battlefield State Park","location":"Randolph","state":"Virginia","country":"USA","imageURL":null,"remarks":""},{"name":"Sweet Run State Park","location":"Hillsboro","state":"Virginia","country":"USA","imageURL":null,"remarks":""},{"name":"Tabb Monument","location":"Amelia County","state":"Virginia","country":"USA","imageURL":null,"remarks":""},{"name":"Twin Lakes State Park","location":"Green Bay","state":"Virginia","country":"USA","imageURL":null,"remarks":""},{"name":"Westmoreland State Park","location":"Montross","state":"Virginia","country":"USA","imageURL":null,"remarks":""},{"name":"Widewater State Park","location":"Stafford","state":"Virginia","country":"USA","imageURL":null,"remarks":""},{"name":"Wilderness Road State Park","location":"Ewing","state":"Virginia","country":"USA","imageURL":null,"remarks":""},{"name":"York River State Park","location":"Williamsburg","state":"Virginia","country":"USA","imageURL":null,"remarks":""}]