[{"name":"Alta Lake","location":"Okanogan","state":"Washington","country":"USA","imageURL":null,"remarks":null},{"name":"Anderson Lake","location":"Jefferson","state":"Washington","country":"USA","imageURL":null,"remarks":null},{"name":"Battle Ground Lake","location":"Clark","state":"Washington","country":"USA","imageURL":null,"remarks":null},{"name":"Bay View","location":"Skagit","state":"Washington","country":"USA","imageURL":null,"remarks":null},{"name":"Beacon Rock","location":"Skamania","state":"Washington","country":"USA","imageURL":null,"remarks":null},{"name":"Belfair","location":"Mason","state":"Washington","country":"USA","imageURL":null,"remarks":null},{"name":"Birch Bay","location":"Whatcom","state":"Washington","country":"USA","imageURL":null,"remarks":null},{"name":"Blake Island","location":"Kitsap","state":"Washington","country":"USA","imageURL":null,"remarks":null},{"name":"Blind Island","location":"San Juan","state":"Washington","country":"USA","imageURL":null,"remarks":null},{"name":"Bogachiel","location":"Clallam","state":"Washington","country":"USA","imageURL":null,"remarks":null},{"name":"Bottle Beach","location":"Grays Harbor","state":"Washington","country":"USA","imageURL":null,"remarks":null},{"name":"Bridgeport","location":"Okanogan","state":"Washington","country":"USA","imageURL":null,"remarks":null},{"name":"Bridle Trails","location":"King","state":"Washington","country":"USA","imageURL":null,"remarks":null},{"name":"Brooks Memorial","location":"Klickitat","state":"Washington","country":"USA","imageURL":null,"remarks":null},{"name":"Cama Beach","location":"Island","state":"Washington","country":"USA","imageURL":null,"remarks":null},{"name":"Camano Island","location":"Island","state":"Washington","country":"USA","imageURL":null,"remarks":null},{"name":"Cape Disappointment","location":"Pacific","state":"Washington","country":"USA","imageURL":null,"remarks":null},{"name":"Centennial Trail","location":"Spokane","state":"Washington","country":"USA","imageURL":null,"remarks":null},{"name":"Clark Island","location":"San Juan","state":"Washington","country":"USA","imageURL":null,"remarks":null},{"name":"Columbia Hills","location":"Klickitat","state":"Washington","country":"USA","imageURL":null,"remarks":null},{"name":"Columbia Plateau Trail","location":"Adams","state":"Washington","country":"USA","imageURL":null,"remarks":null},{"name":"Conconully","location":"Okanogan","state":"Washington","country":"USA","imageURL":null,"remarks":null},{"name":"Crawford","location":"Pend Oreille","state":"Washington","country":"USA","imageURL":null,"remarks":null},{"name":"Curlew Lake","location":"Ferry","state":"Washington","country":"USA","imageURL":null,"remarks":null},{"name":"Cutts Island","location":"Pierce","state":"Washington","country":"USA","imageURL":null,"remarks":null},{"name":"Daroga","location":"Douglas","state":"Washington","country":"USA","imageURL":null,"remarks":null},{"name":"Dash Point","location":"King","state":"Washington","country":"USA","imageURL":null,"remarks":null},{"name":"Deception Pass","location":"Island","state":"Washington","country":"USA","imageURL":null,"remarks":null},{"name":"Doe Island","location":"San Juan","state":"Washington","country":"USA","imageURL":null,"remarks":null},{"name":"Dosewallips","location":"Jefferson","state":"Washington","country":"USA","imageURL":null,"remarks":null},{"name":"Doug's Beach","location":"Klickitat","state":"Washington","country":"USA","imageURL":null,"remarks":null},{"name":"Eagle Island State Park","location":"Pierce","state":"Washington","country":"USA","imageURL":null,"remarks":null},{"name":"Federation Forest","location":"King","state":"Washington","country":"USA","imageURL":null,"remarks":null},{"name":"Fields Spring","location":"Asotin","state":"Washington","country":"USA","imageURL":null,"remarks":null},{"name":"Flaming Geyser","location":"King","state":"Washington","country":"USA","imageURL":null,"remarks":null},{"name":"Forks of the Sky","location":"King","state":"Washington","country":"USA","imageURL":null,"remarks":null},{"name":"Fort Casey","location":"Island","state":"Washington","country":"USA","imageURL":null,"remarks":null},{"name":"Fort Columbia","location":"Pacific","state":"Washington","country":"USA","imageURL":null,"remarks":null},{"name":"Fort Ebey","location":"Island","state":"Washington","country":"USA","imageURL":null,"remarks":null},{"name":"Fort Flagler","location":"Jefferson","state":"Washington","country":"USA","imageURL":null,"remarks":null},{"name":"Fort Simcoe","location":"Yakima","state":"Washington","country":"USA","imageURL":null,"remarks":null},{"name":"Fort Townsend","location":"Jefferson","state":"Washington","country":"USA","imageURL":null,"remarks":null},{"name":"Fort Worden","location":"Jefferson","state":"Washington","country":"USA","imageURL":null,"remarks":null},{"name":"Ginkgo Petrified Forest","location":"Kittitas","state":"Washington","country":"USA","imageURL":null,"remarks":null},{"name":"Goldendale Observatory","location":"Klickitat","state":"Washington","country":"USA","imageURL":null,"remarks":null},{"name":"Grayland Beach","location":"Pacific","state":"Washington","country":"USA","imageURL":null,"remarks":null},{"name":"Griffiths-Priday","location":"Grays Harbor","state":"Washington","country":"USA","imageURL":null,"remarks":null},{"name":"Harstine Island","location":"Mason","state":"Washington","country":"USA","imageURL":null,"remarks":null},{"name":"Hope Island (Mason County)","location":"Mason","state":"Washington","country":"USA","imageURL":null,"remarks":null},{"name":"Hope Island (Skagit County)","location":"Skagit","state":"Washington","country":"USA","imageURL":null,"remarks":null},{"name":"Ike Kinswa","location":"Lewis","state":"Washington","country":"USA","imageURL":null,"remarks":null},{"name":"Illahee","location":"Kitsap","state":"Washington","country":"USA","imageURL":null,"remarks":null},{"name":"Iron Horse","location":"Kittitas, King","state":"Washington","country":"USA","imageURL":null,"remarks":null},{"name":"Jackson House","location":"Lewis County","state":"Washington","country":"USA","imageURL":null,"remarks":null},{"name":"James Island","location":"San Juan","state":"Washington","country":"USA","imageURL":null,"remarks":null},{"name":"Jarrell Cove","location":"Mason","state":"Washington","country":"USA","imageURL":null,"remarks":null},{"name":"Joemma Beach","location":"Pierce","state":"Washington","country":"USA","imageURL":null,"remarks":null},{"name":"Jones Island","location":"San Juan","state":"Washington","country":"USA","imageURL":null,"remarks":null},{"name":"Joseph Whidbey","location":"Island","state":"Washington","country":"USA","imageURL":null,"remarks":null},{"name":"Kanaskat-Palmer","location":"King","state":"Washington","country":"USA","imageURL":null,"remarks":null},{"name":"Kinney Point","location":"Jefferson","state":"Washington","country":"USA","imageURL":null,"remarks":null},{"name":"Kitsap Memorial","location":"Kitsap","state":"Washington","country":"USA","imageURL":null,"remarks":null},{"name":"Kopachuck","location":"Pierce","state":"Washington","country":"USA","imageURL":null,"remarks":null},{"name":"Lake Chelan","location":"Chelan","state":"Washington","country":"USA","imageURL":null,"remarks":null},{"name":"Lake Easton","location":"Kittitas","state":"Washington","country":"USA","imageURL":null,"remarks":null},{"name":"Lake Isabella","location":"Mason","state":"Washington","country":"USA","imageURL":null,"remarks":null},{"name":"Lake Sammamish","location":"King","state":"Washington","country":"USA","imageURL":null,"remarks":null},{"name":"Lake Sylvia","location":"Grays Harbor","state":"Washington","country":"USA","imageURL":null,"remarks":null},{"name":"Lake Wenatchee","location":"Chelan","state":"Washington","country":"USA","imageURL":null,"remarks":null},{"name":"Larrabee","location":"Whatcom","state":"Washington","country":"USA","imageURL":null,"remarks":null},{"name":"Leadbetter Point","location":"Pacific","state":"Washington","country":"USA","imageURL":null,"remarks":null},{"name":"Lewis and Clark","location":"Lewis","state":"Washington","country":"USA","imageURL":null,"remarks":null},{"name":"Lewis and Clark Trail","location":"Columbia","state":"Washington","country":"USA","imageURL":null,"remarks":null},{"name":"Lime Kiln Point","location":"San Juan","state":"Washington","country":"USA","imageURL":null,"remarks":null},{"name":"Lincoln Rock","location":"Douglas","state":"Washington","country":"USA","imageURL":null,"remarks":null},{"name":"Lyons Ferry","location":"Franklin","state":"Washington","country":"USA","imageURL":null,"remarks":null},{"name":"Loomis Lake","location":"Pacific","state":"Washington","country":"USA","imageURL":null,"remarks":null},{"name":"Manchester","location":"Kitsap","state":"Washington","country":"USA","imageURL":null,"remarks":null},{"name":"Maryhill","location":"Klickitat","state":"Washington","country":"USA","imageURL":null,"remarks":null},{"name":"Matia Island","location":"San Juan","state":"Washington","country":"USA","imageURL":null,"remarks":null},{"name":"McMicken Island","location":"Mason","state":"Washington","country":"USA","imageURL":null,"remarks":null},{"name":"Millersylvania","location":"Thurston","state":"Washington","country":"USA","imageURL":null,"remarks":null},{"name":"Moran","location":"San Juan","state":"Washington","country":"USA","imageURL":null,"remarks":null},{"name":"Mount Pilchuck","location":"Snohomish","state":"Washington","country":"USA","imageURL":null,"remarks":null},{"name":"Mount Spokane","location":"Spokane","state":"Washington","country":"USA","imageURL":null,"remarks":null},{"name":"Mystery Bay","location":"Jefferson","state":"Washington","country":"USA","imageURL":null,"remarks":null},{"name":"Nolte","location":"King","state":"Washington","country":"USA","imageURL":null,"remarks":null},{"name":"Obstruction Pass","location":"San Juan","state":"Washington","country":"USA","imageURL":null,"remarks":null},{"name":"Ocean City","location":"Grays Harbor","state":"Washington","country":"USA","imageURL":null,"remarks":null},{"name":"Olallie","location":"King","state":"Washington","country":"USA","imageURL":null,"remarks":null},{"name":"Olmstead Place","location":"Kittitas","state":"Washington","country":"USA","imageURL":null,"remarks":null},{"name":"Pacific Beach","location":"Grays Harbor","state":"Washington","country":"USA","imageURL":null,"remarks":null},{"name":"Pacific Pines","location":"Pacific","state":"Washington","country":"USA","imageURL":null,"remarks":null},{"name":"Palouse Falls","location":"Franklin, Whitman","state":"Washington","country":"USA","imageURL":null,"remarks":null},{"name":"Paradise Point","location":"Clark","state":"Washington","country":"USA","imageURL":null,"remarks":null},{"name":"Patos Island","location":"San Juan","state":"Washington","country":"USA","imageURL":null,"remarks":null},{"name":"Peace Arch","location":"Whatcom","state":"Washington","country":"USA","imageURL":null,"remarks":null},{"name":"Pearrygin Lake","location":"Okanogan","state":"Washington","country":"USA","imageURL":null,"remarks":null},{"name":"Penrose Point","location":"Pierce","state":"Washington","country":"USA","imageURL":null,"remarks":null},{"name":"Peshastin Pinnacles","location":"Chelan","state":"Washington","country":"USA","imageURL":null,"remarks":null},{"name":"Pleasant Harbor","location":"Jefferson","state":"Washington","country":"USA","imageURL":null,"remarks":null},{"name":"Posey Island","location":"San Juan","state":"Washington","country":"USA","imageURL":null,"remarks":null},{"name":"Potholes","location":"Grant","state":"Washington","country":"USA","imageURL":null,"remarks":null},{"name":"Potlatch","location":"Mason","state":"Washington","country":"USA","imageURL":null,"remarks":null},{"name":"Rainbow Falls","location":"Lewis","state":"Washington","country":"USA","imageURL":null,"remarks":null},{"name":"Rasar","location":"Skagit","state":"Washington","country":"USA","imageURL":null,"remarks":null},{"name":"Reed Island","location":"Clark","state":"Washington","country":"USA","imageURL":null,"remarks":null},{"name":"Riverside","location":"Spokane","state":"Washington","country":"USA","imageURL":null,"remarks":null},{"name":"Rockport","location":"Skagit","state":"Washington","country":"USA","imageURL":null,"remarks":null},{"name":"Sacajawea","location":"Franklin","state":"Washington","country":"USA","imageURL":null,"remarks":null},{"name":"Saddlebag Island","location":"San Juan","state":"Washington","country":"USA","imageURL":null,"remarks":null},{"name":"Saint Edward","location":"King","state":"Washington","country":"USA","imageURL":null,"remarks":null},{"name":"Saltwater","location":"King","state":"Washington","country":"USA","imageURL":null,"remarks":null},{"name":"Scenic Beach","location":"Kitsap","state":"Washington","country":"USA","imageURL":null,"remarks":null},{"name":"Schafer","location":"Mason","state":"Washington","country":"USA","imageURL":null,"remarks":null},{"name":"Seaquest","location":"Cowlitz","state":"Washington","country":"USA","imageURL":null,"remarks":null},{"name":"Sequim Bay","location":"Clallam","state":"Washington","country":"USA","imageURL":null,"remarks":null},{"name":"Shine Tidelands","location":"Jefferson","state":"Washington","country":"USA","imageURL":null,"remarks":null},{"name":"Skagit Island","location":"Skagit","state":"Washington","country":"USA","imageURL":null,"remarks":null},{"name":"Skull Island","location":"San Juan","state":"Washington","country":"USA","imageURL":null,"remarks":null},{"name":"South Whidbey","location":"Island","state":"Washington","country":"USA","imageURL":null,"remarks":null},{"name":"Spencer Spit","location":"San Juan","state":"Washington","country":"USA","imageURL":null,"remarks":null},{"name":"Spring Creek Hatchery","location":"Skamania","state":"Washington","country":"USA","imageURL":null,"remarks":null},{"name":"Squak Mountain","location":"King","state":"Washington","country":"USA","imageURL":null,"remarks":null},{"name":"Squilchuck","location":"Chelan","state":"Washington","country":"USA","imageURL":null,"remarks":null},{"name":"Steamboat Rock","location":"Grant","state":"Washington","country":"USA","imageURL":null,"remarks":null},{"name":"Steptoe Battlefield","location":"Whitman","state":"Washington","country":"USA","imageURL":null,"remarks":null},{"name":"Steptoe Butte","location":"Whitman","state":"Washington","country":"USA","imageURL":null,"remarks":null},{"name":"Stretch Point","location":"Mason","state":"Washington","country":"USA","imageURL":null,"remarks":null},{"name":"Stuart Island","location":"San Juan","state":"Washington","country":"USA","imageURL":null,"remarks":null},{"name":"Sucia Island","location":"San Juan","state":"Washington","country":"USA","imageURL":null,"remarks":null},{"name":"Sun Lakes-Dry Falls","location":"Grant","state":"Washington","country":"USA","imageURL":null,"remarks":null},{"name":"Tolmie","location":"Thurston","state":"Washington","country":"USA","imageURL":null,"remarks":null},{"name":"Triton Cove","location":"Jefferson","state":"Washington","country":"USA","imageURL":null,"remarks":null},{"name":"Turn Island","location":"San Juan","state":"Washington","country":"USA","imageURL":null,"remarks":null},{"name":"Twanoh","location":"Mason","state":"Washington","country":"USA","imageURL":null,"remarks":null},{"name":"Twenty-Five Mile Creek","location":"Chelan","state":"Washington","country":"USA","imageURL":null,"remarks":null},{"name":"Twin Harbors","location":"Grays Harbor","state":"Washington","country":"USA","imageURL":null,"remarks":null},{"name":"Wallace Falls","location":"Snohomish","state":"Washington","country":"USA","imageURL":null,"remarks":null},{"name":"Wenatchee Confluence","location":"Chelan","state":"Washington","country":"USA","imageURL":null,"remarks":null},{"name":"Westhaven","location":"Grays Harbor","state":"Washington","country":"USA","imageURL":null,"remarks":null},{"name":"Westport Light","location":"Grays","state":"Washington","country":"USA","imageURL":null,"remarks":null},{"name":"Yakima Sportsman","location":"Yakima","state":"Washington","country":"USA","imageURL":null,"remarks":null}]