[{"name":"Amnicon Falls State Park","location":"Douglas","state":"Wisconsin","country":"USA","imageURL":null,"remarks":"Amnicon River"},{"name":"Aztalan State Park","location":"Jefferson","state":"Wisconsin","country":"USA","imageURL":null,"remarks":"Crawfish River"},{"name":"Belmont Mound State Park","location":"Lafayette","state":"Wisconsin","country":"USA","imageURL":null,"remarks":"None"},{"name":"Big Bay State Park","location":"Ashland","state":"Wisconsin","country":"USA","imageURL":null,"remarks":"Lake Superior"},{"name":"Big Foot Beach State Park","location":"Walworth","state":"Wisconsin","country":"USA","imageURL":null,"remarks":"Geneva Lake"},{"name":"Blue Mound State Park","location":"Dane","state":"Wisconsin","country":"USA","imageURL":null,"remarks":"None"},{"name":"Brunet Island State Park","location":"Chippewa","state":"Wisconsin","country":"USA","imageURL":null,"remarks":"Chippewa and Fisher Rivers"},{"name":"Buckhorn State Park","location":"Juneau","state":"Wisconsin","country":"USA","imageURL":null,"remarks":"Castle Rock Lake"},{"name":"Cadiz Springs State Recreation Area","location":"Green","state":"Wisconsin","country":"USA","imageURL":null,"remarks":"Beckman and Zander Lakes"},{"name":"Campbellsport Drumlins State Park","location":"Fond du Lac","state":"Wisconsin","country":"USA","imageURL":null,"remarks":"None"},{"name":"Capital Springs State Recreation Area","location":"Dane","state":"Wisconsin","country":"USA","imageURL":null,"remarks":"Lake Waubesa"},{"name":"Chippewa Moraine State Recreation Area","location":"Chippewa","state":"Wisconsin","country":"USA","imageURL":null,"remarks":"Numerous kettle lakes"},{"name":"Copper Culture State Park","location":"Oconto","state":"Wisconsin","country":"USA","imageURL":null,"remarks":"Oconto River"},{"name":"Copper Falls State Park","location":"Ashland","state":"Wisconsin","country":"USA","imageURL":null,"remarks":"Bad River"},{"name":"Council Grounds State Park","location":"Lincoln","state":"Wisconsin","country":"USA","imageURL":null,"remarks":"Wisconsin River"},{"name":"Cross Plains State Park","location":"Dane","state":"Wisconsin","country":"USA","imageURL":null,"remarks":"None"},{"name":"Devil's Lake State Park","location":"Sauk","state":"Wisconsin","country":"USA","imageURL":null,"remarks":"Devil's Lake"},{"name":"Fischer Creek State Recreation Area","location":"Manitowoc","state":"Wisconsin","country":"USA","imageURL":null,"remarks":"Lake Michigan"},{"name":"Governor Dodge State Park","location":"Iowa","state":"Wisconsin","country":"USA","imageURL":null,"remarks":"Two man-made lakes"},{"name":"Governor Nelson State Park","location":"Dane","state":"Wisconsin","country":"USA","imageURL":null,"remarks":"Lake Mendota"},{"name":"Governor Thompson State Park","location":"Marinette","state":"Wisconsin","country":"USA","imageURL":null,"remarks":"Peshtigo River, Woods Lake"},{"name":"Harrington Beach State Park","location":"Ozaukee","state":"Wisconsin","country":"USA","imageURL":null,"remarks":"Lake Michigan"},{"name":"Hartman Creek State Park","location":"Waupaca and Portage","state":"Wisconsin","country":"USA","imageURL":null,"remarks":"Hartman Creek, seven lakes"},{"name":"Heritage Hill State Historical Park","location":"Brown","state":"Wisconsin","country":"USA","imageURL":null,"remarks":"Fox River"},{"name":"High Cliff State Park","location":"Calumet","state":"Wisconsin","country":"USA","imageURL":null,"remarks":"Lake Winnebago"},{"name":"Hoffman Hills State Recreation Area","location":"Dunn","state":"Wisconsin","country":"USA","imageURL":null,"remarks":"None"},{"name":"Holzhueter Farm Conservation Park","location":"Jefferson","state":"Wisconsin","country":"USA","imageURL":null,"remarks":"None"},{"name":"Interstate State Park","location":"Polk","state":"Wisconsin","country":"USA","imageURL":null,"remarks":"St. Croix River, Lake O' the Dalles"},{"name":"Kinnickinnic State Park","location":"Pierce","state":"Wisconsin","country":"USA","imageURL":null,"remarks":"St. Croix and Kinnickinnic Rivers"},{"name":"Kohler-Andrae State Park","location":"Sheboygan","state":"Wisconsin","country":"USA","imageURL":null,"remarks":"Lake Michigan, Black River"},{"name":"Lake Kegonsa State Park","location":"Dane","state":"Wisconsin","country":"USA","imageURL":null,"remarks":"Lake Kegonsa"},{"name":"Lake Wissota State Park","location":"Chippewa","state":"Wisconsin","country":"USA","imageURL":null,"remarks":"Lake Wissota"},{"name":"Lakeshore State Park","location":"Milwaukee","state":"Wisconsin","country":"USA","imageURL":null,"remarks":"Lake Michigan"},{"name":"Lizard Mound State Park","location":"Farmington","state":"Wisconsin","country":"USA","imageURL":null,"remarks":"None"},{"name":"Menominee River State Park and Recreation Area","location":"Marinette","state":"Wisconsin","country":"USA","imageURL":null,"remarks":"Menominee River"},{"name":"Merrick State Park","location":"Buffalo","state":"Wisconsin","country":"USA","imageURL":null,"remarks":"Mississippi River"},{"name":"Mill Bluff State Park","location":"Monroe and Juneau","state":"Wisconsin","country":"USA","imageURL":null,"remarks":"None"},{"name":"Mirror Lake State Park","location":"Sauk","state":"Wisconsin","country":"USA","imageURL":null,"remarks":"Mirror Lake"},{"name":"Natural Bridge State Park","location":"Sauk","state":"Wisconsin","country":"USA","imageURL":null,"remarks":"None"},{"name":"Nelson Dewey State Park","location":"Grant","state":"Wisconsin","country":"USA","imageURL":null,"remarks":"Mississippi River"},{"name":"New Glarus Woods State Park","location":"Green","state":"Wisconsin","country":"USA","imageURL":null,"remarks":"None"},{"name":"Newport State Park","location":"Door","state":"Wisconsin","country":"USA","imageURL":null,"remarks":"Lake Michigan"},{"name":"Pattison State Park","location":"Douglas","state":"Wisconsin","country":"USA","imageURL":null,"remarks":"Black River"},{"name":"Peninsula State Park","location":"Door","state":"Wisconsin","country":"USA","imageURL":null,"remarks":"Green Bay"},{"name":"Perrot State Park","location":"Trempealeau","state":"Wisconsin","country":"USA","imageURL":null,"remarks":"Mississippi and Trempealeau Rivers"},{"name":"Potawatomi State Park","location":"Door","state":"Wisconsin","country":"USA","imageURL":null,"remarks":"Sturgeon Bay"},{"name":"Rib Mountain State Park","location":"Marathon","state":"Wisconsin","country":"USA","imageURL":null,"remarks":"None"},{"name":"Richard Bong State Recreation Area","location":"Kenosha","state":"Wisconsin","country":"USA","imageURL":null,"remarks":"Several small lakes"},{"name":"Roche-a-Cri State Park","location":"Adams","state":"Wisconsin","country":"USA","imageURL":null,"remarks":"None"},{"name":"Rock Island State Park","location":"Door","state":"Wisconsin","country":"USA","imageURL":null,"remarks":"Lake Michigan"},{"name":"Rocky Arbor State Park","location":"Juneau","state":"Wisconsin","country":"USA","imageURL":null,"remarks":""},{"name":"Straight Lake State Park","location":"Polk","state":"Wisconsin","country":"USA","imageURL":null,"remarks":"Straight Lake"},{"name":"Tower Hill State Park","location":"Iowa","state":"Wisconsin","country":"USA","imageURL":null,"remarks":"Wisconsin River"},{"name":"Whitefish Dunes State Park","location":"Door","state":"Wisconsin","country":"USA","imageURL":null,"remarks":"Lake Michigan, Clark Lake"},{"name":"Wildcat Mountain State Park","location":"Vernon","state":"Wisconsin","country":"USA","imageURL":null,"remarks":"Kickapoo River"},{"name":"Willow River State Park","location":"St. Croix","state":"Wisconsin","country":"USA","imageURL":null,"remarks":"Willow River"},{"name":"Wyalusing State Park","location":"Grant","state":"Wisconsin","country":"USA","imageURL":null,"remarks":"Mississippi and Wisconsin Rivers"},{"name":"Yellowstone Lake State Park","location":"Lafayette","state":"Wisconsin","country":"USA","imageURL":null,"remarks":"Yellowstone Lake"}]