[{"name":"Bear River State Park","location":"Uinta","state":"Wyoming","country":"USA","imageURL":null,"remarks":""},{"name":"Boysen State Park","location":"Fremont","state":"Wyoming","country":"USA","imageURL":null,"remarks":""},{"name":"Buffalo Bill State Park","location":"Park","state":"Wyoming","country":"USA","imageURL":null,"remarks":""},{"name":"Curt Gowdy State Park","location":"Laramie","state":"Wyoming","country":"USA","imageURL":null,"remarks":""},{"name":"Edness K. Wilkins State Park","location":"Natrona","state":"Wyoming","country":"USA","imageURL":null,"remarks":""},{"name":"Glendo State Park","location":"Converse, Platte","state":"Wyoming","country":"USA","imageURL":null,"remarks":""},{"name":"Guernsey State Park","location":"Platte","state":"Wyoming","country":"USA","imageURL":null,"remarks":""},{"name":"Hawk Springs State Recreation Area","location":"Goshen","state":"Wyoming","country":"USA","imageURL":null,"remarks":""},{"name":"Hot Springs State Park","location":"Hot Springs","state":"Wyoming","country":"USA","imageURL":null,"remarks":""},{"name":"Keyhole State Park","location":"Crook","state":"Wyoming","country":"USA","imageURL":null,"remarks":""},{"name":"Seminoe State Park","location":"Carbon","state":"Wyoming","country":"USA","imageURL":null,"remarks":""},{"name":"Sinks Canyon State Park","location":"Fremont","state":"Wyoming","country":"USA","imageURL":null,"remarks":""}]